{"type":"FeatureCollection","features":[{"type":"Feature","geometry":{"type":"Point","coordinates":[2.76135,45.05887]},"properties":{"name":"Plomb du Cantal","country":"France","website":null,"opening_hours":null,"capacity":null,"phone":null,"address":null,"ele":"1855","operator":null,"wikipedia":"fr:Plomb du Cantal","wikidata":"Q991088","description":null,"wheelchair":null,"osmType":"node","osmId":26864335,"elevation":"1855","type":"stratovolcano"}},{"type":"Feature","geometry":{"type":"Point","coordinates":[2.81401,45.52824]},"properties":{"name":"Puy de Sancy","country":"France","website":null,"opening_hours":null,"capacity":null,"phone":null,"address":null,"ele":"1885","operator":null,"wikipedia":"en:Puy de Sancy","wikidata":"Q778597","description":"The highest mountain and the highest volcano in the Central Massif in France.","wheelchair":null,"osmType":"node","osmId":26864391,"elevation":"1885","type":"stratovolcano"}},{"type":"Feature","geometry":{"type":"Point","coordinates":[2.70642,45.08039]},"properties":{"name":"Puy Griou","country":"France","website":null,"opening_hours":null,"capacity":null,"phone":null,"address":null,"ele":"1690","operator":null,"wikipedia":null,"wikidata":"Q568090","description":null,"wheelchair":null,"osmType":"node","osmId":27278193,"elevation":"1690"}},{"type":"Feature","geometry":{"type":"Point","coordinates":[2.67625,45.10931]},"properties":{"name":"Puy Mary","country":"France","website":"https://www.puymary.fr/","opening_hours":null,"capacity":null,"phone":null,"address":null,"ele":"1783","operator":null,"wikipedia":"fr:Puy Mary","wikidata":"Q2119428","description":null,"wheelchair":null,"osmType":"node","osmId":27278194,"elevation":"1783","type":"Pic pyramidal"}},{"type":"Feature","geometry":{"type":"Point","coordinates":[2.58894,45.13008]},"properties":{"name":"Puy Violent","country":"France","website":null,"opening_hours":null,"capacity":null,"phone":null,"address":null,"ele":"1592","operator":null,"wikipedia":null,"wikidata":"Q3411083","description":null,"wheelchair":null,"osmType":"node","osmId":27278195,"elevation":"1592","type":"lava_dome"}},{"type":"Feature","geometry":{"type":"Point","coordinates":[2.98105,45.81428]},"properties":{"name":"Grand Sarcouy","country":"France","website":null,"opening_hours":null,"capacity":null,"phone":null,"address":null,"ele":"1147","operator":null,"wikipedia":"fr:Grand Sarcouy","wikidata":"Q3114564","description":null,"wheelchair":null,"osmType":"node","osmId":34402156,"elevation":"1147","type":"lava_dome"}},{"type":"Feature","geometry":{"type":"Point","coordinates":[2.96441,45.77265]},"properties":{"name":"Puy de Dôme","country":"France","website":null,"opening_hours":null,"capacity":null,"phone":null,"address":null,"ele":"1464","operator":null,"wikipedia":"fr:Puy de Dôme","wikidata":"Q607372","description":null,"wheelchair":null,"osmType":"node","osmId":34563650,"elevation":"1464","type":"stratovolcano"}},{"type":"Feature","geometry":{"type":"Point","coordinates":[3.13641,45.77264]},"properties":{"name":"Puy de Crouël","country":"France","website":null,"opening_hours":null,"capacity":null,"phone":null,"address":null,"ele":"427","operator":null,"wikipedia":"fr:Puy de Crouel","wikidata":null,"description":null,"wheelchair":null,"osmType":"node","osmId":347720457,"elevation":"427"}},{"type":"Feature","geometry":{"type":"Point","coordinates":[2.5982,45.07221]},"properties":{"name":"Puy de Bassierou","country":"France","website":null,"opening_hours":null,"capacity":null,"phone":null,"address":null,"ele":"1441","operator":null,"wikipedia":null,"wikidata":"Q49064978","description":null,"wheelchair":null,"osmType":"node","osmId":393407170,"elevation":"1441"}},{"type":"Feature","geometry":{"type":"Point","coordinates":[2.95186,45.73421]},"properties":{"name":"Puy de Laschamps","country":"France","website":null,"opening_hours":null,"capacity":null,"phone":null,"address":null,"ele":"1256","operator":null,"wikipedia":null,"wikidata":"Q31393929","description":null,"wheelchair":null,"osmType":"node","osmId":411714158,"elevation":"1256","type":"scoria"}},{"type":"Feature","geometry":{"type":"Point","coordinates":[2.94933,45.74749]},"properties":{"name":"Puy Monchier","country":"France","website":null,"opening_hours":null,"capacity":null,"phone":null,"address":null,"ele":"1210","operator":null,"wikipedia":null,"wikidata":"Q29422025","description":null,"wheelchair":null,"osmType":"node","osmId":411714167,"elevation":"1210","type":"scoria"}},{"type":"Feature","geometry":{"type":"Point","coordinates":[2.9402,45.78863]},"properties":{"name":"Puy Balmet","country":"France","website":null,"opening_hours":null,"capacity":null,"phone":null,"address":null,"ele":"1075","operator":null,"wikipedia":null,"wikidata":"Q31394752","description":null,"wheelchair":null,"osmType":"node","osmId":411714199,"elevation":"1075","type":"scoria"}},{"type":"Feature","geometry":{"type":"Point","coordinates":[2.94064,45.7968]},"properties":{"name":"Puy de Côme","country":"France","website":null,"opening_hours":null,"capacity":null,"phone":null,"address":null,"ele":"1251","operator":null,"wikipedia":"fr:Puy de Côme","wikidata":"Q3411087","description":null,"wheelchair":null,"osmType":"node","osmId":411714212,"elevation":"1251","type":"scoria"}},{"type":"Feature","geometry":{"type":"Point","coordinates":[2.96087,45.67753]},"properties":{"name":"Puy de Charmont","country":"France","website":null,"opening_hours":null,"capacity":null,"phone":null,"address":null,"ele":"1138","operator":null,"wikipedia":"fr:Puy de Charmont","wikidata":"Q31669916","description":null,"wheelchair":null,"osmType":"node","osmId":411714219,"elevation":"1138","type":"scoria"}},{"type":"Feature","geometry":{"type":"Point","coordinates":[2.9334,45.63576]},"properties":{"name":"Puy de Monténard","country":"France","website":null,"opening_hours":null,"capacity":null,"phone":null,"address":null,"ele":"1173","operator":null,"wikipedia":"fr:Puy de Monténard","wikidata":"Q49064985","description":null,"wheelchair":null,"osmType":"node","osmId":449031636,"elevation":"1173","type":"scoria"}},{"type":"Feature","geometry":{"type":"Point","coordinates":[2.78963,45.59842]},"properties":{"name":"Puy Gros","country":"France","website":null,"opening_hours":null,"capacity":null,"phone":null,"address":null,"ele":"1485","operator":null,"wikipedia":null,"wikidata":"Q111182651","description":null,"wheelchair":null,"osmType":"node","osmId":449037321,"elevation":"1485"}},{"type":"Feature","geometry":{"type":"Point","coordinates":[2.93153,45.70908]},"properties":{"name":"Puy de Pourcharet","country":"France","website":null,"opening_hours":null,"capacity":null,"phone":null,"address":null,"ele":"1164","operator":null,"wikipedia":"fr:Puy de Pourcharet","wikidata":"Q31669881","description":null,"wheelchair":null,"osmType":"node","osmId":449037330,"elevation":"1164","type":"scoria"}},{"type":"Feature","geometry":{"type":"Point","coordinates":[2.95819,45.71103]},"properties":{"name":"Puy de Lassolas","country":"France","website":null,"opening_hours":null,"capacity":null,"phone":null,"address":null,"ele":"1187","operator":null,"wikipedia":"fr:Puy de Lassolas","wikidata":"Q3411095","description":null,"wheelchair":null,"osmType":"node","osmId":449053885,"elevation":"1187","type":"scoria"}},{"type":"Feature","geometry":{"type":"Point","coordinates":[2.96315,45.70557]},"properties":{"name":"Puy de la Vache","country":"France","website":null,"opening_hours":null,"capacity":null,"phone":null,"address":null,"ele":"1167","operator":null,"wikipedia":"fr:Puy de la Vache","wikidata":"Q3411102","description":null,"wheelchair":null,"osmType":"node","osmId":449053887,"elevation":"1167","type":"scoria"}},{"type":"Feature","geometry":{"type":"Point","coordinates":[2.84319,45.62171]},"properties":{"name":"Puy de l'Aiguillier","country":"France","website":null,"opening_hours":null,"capacity":null,"phone":null,"address":null,"ele":"1530","operator":null,"wikipedia":"fr:Puy de l'Aiguiller","wikidata":"Q31653981","description":null,"wheelchair":null,"osmType":"node","osmId":449053893,"elevation":"1530"}},{"type":"Feature","geometry":{"type":"Point","coordinates":[2.83624,45.61835]},"properties":{"name":"Puy Corde","country":"France","website":null,"opening_hours":null,"capacity":null,"phone":null,"address":null,"ele":"1484","operator":null,"wikipedia":null,"wikidata":"Q113112124","description":null,"wheelchair":null,"osmType":"node","osmId":449053900,"elevation":"1484"}},{"type":"Feature","geometry":{"type":"Point","coordinates":[2.85714,45.59815]},"properties":{"name":"Puy de la Croix Morand","country":"France","website":null,"opening_hours":null,"capacity":null,"phone":null,"address":null,"ele":"1520","operator":null,"wikipedia":null,"wikidata":"Q31646128","description":null,"wheelchair":null,"osmType":"node","osmId":449053903,"elevation":"1520"}},{"type":"Feature","geometry":{"type":"Point","coordinates":[2.82868,45.53659]},"properties":{"name":"Puy de Cacadogne","country":"France","website":null,"opening_hours":null,"capacity":null,"phone":null,"address":null,"ele":"1784","operator":null,"wikipedia":null,"wikidata":"Q31676127","description":null,"wheelchair":null,"osmType":"node","osmId":449053907,"elevation":"1784"}},{"type":"Feature","geometry":{"type":"Point","coordinates":[2.82649,45.5248]},"properties":{"name":"Puy Ferrand","country":"France","website":null,"opening_hours":null,"capacity":null,"phone":null,"address":null,"ele":"1854","operator":null,"wikipedia":null,"wikidata":"Q3411074","description":null,"wheelchair":null,"osmType":"node","osmId":449053911,"elevation":"1854"}},{"type":"Feature","geometry":{"type":"Point","coordinates":[3.24613,45.69789]},"properties":{"name":"Puy Saint-André","country":"France","website":null,"opening_hours":null,"capacity":null,"phone":null,"address":null,"ele":"692","operator":null,"wikipedia":null,"wikidata":null,"description":null,"wheelchair":null,"osmType":"node","osmId":475348039,"elevation":"692"}},{"type":"Feature","geometry":{"type":"Point","coordinates":[2.88356,45.48797]},"properties":{"name":"Puy de Montchal","country":"France","website":null,"opening_hours":null,"capacity":null,"phone":null,"address":null,"ele":"1407","operator":null,"wikipedia":null,"wikidata":null,"description":null,"wheelchair":null,"osmType":"node","osmId":653028308,"elevation":"1407","type":"scoria"}},{"type":"Feature","geometry":{"type":"Point","coordinates":[2.86572,45.51221]},"properties":{"name":"Puy de Chambourguet","country":"France","website":null,"opening_hours":null,"capacity":null,"phone":null,"address":null,"ele":"1520","operator":null,"wikipedia":null,"wikidata":null,"description":null,"wheelchair":null,"osmType":"node","osmId":662618474,"elevation":"1520"}},{"type":"Feature","geometry":{"type":"Point","coordinates":[2.67323,45.12526]},"properties":{"name":"Puy de la Tourte","country":"France","website":null,"opening_hours":null,"capacity":null,"phone":null,"address":null,"ele":"1704","operator":null,"wikipedia":null,"wikidata":"Q31670455","description":null,"wheelchair":null,"osmType":"node","osmId":663970444,"elevation":"1704"}},{"type":"Feature","geometry":{"type":"Point","coordinates":[2.90642,45.45865]},"properties":{"name":"Puy de Montcineyre","country":"France","website":null,"opening_hours":null,"capacity":null,"phone":null,"address":null,"ele":"1331","operator":null,"wikipedia":null,"wikidata":null,"description":null,"wheelchair":null,"osmType":"node","osmId":665658565,"elevation":"1331","type":"scoria"}},{"type":"Feature","geometry":{"type":"Point","coordinates":[2.91386,45.39009]},"properties":{"name":"Montagne de Janson","country":"France","website":null,"opening_hours":null,"capacity":null,"phone":null,"address":null,"ele":"1291.89","operator":null,"wikipedia":null,"wikidata":"Q31670041","description":"Borne en granit gravée IGN (1954) - Point vu en place en 2000","wheelchair":null,"osmType":"node","osmId":670192849,"elevation":"1291.89"}},{"type":"Feature","geometry":{"type":"Point","coordinates":[3.02884,45.72626]},"properties":{"name":"Puy de Berzet","country":"France","website":null,"opening_hours":null,"capacity":null,"phone":null,"address":null,"ele":"965.97","operator":null,"wikipedia":null,"wikidata":null,"description":"Rocher Nord : Croix gravée - Point vu en place en 1954","wheelchair":null,"osmType":"node","osmId":670193671,"elevation":"965.97"}},{"type":"Feature","geometry":{"type":"Point","coordinates":[2.96139,45.41372]},"properties":{"name":"La Motte","country":"France","website":null,"opening_hours":null,"capacity":null,"phone":null,"address":null,"ele":"1273","operator":null,"wikipedia":null,"wikidata":"Q31670077","description":null,"wheelchair":null,"osmType":"node","osmId":673843336,"elevation":"1273"}},{"type":"Feature","geometry":{"type":"Point","coordinates":[3.31934,45.7239]},"properties":{"name":"Le Gros Turluron","country":"France","website":null,"opening_hours":null,"capacity":null,"phone":null,"address":null,"ele":"545","operator":null,"wikipedia":null,"wikidata":null,"description":null,"wheelchair":null,"osmType":"node","osmId":685316543,"elevation":"545"}},{"type":"Feature","geometry":{"type":"Point","coordinates":[2.98,45.80961]},"properties":{"name":"Puy des Goules","country":"France","website":null,"opening_hours":null,"capacity":null,"phone":null,"address":null,"ele":"1146","operator":null,"wikipedia":"fr:Puy des Goules","wikidata":"Q3411104","description":null,"wheelchair":null,"osmType":"node","osmId":859303387,"elevation":"1146","type":"scoria"}},{"type":"Feature","geometry":{"type":"Point","coordinates":[2.95396,45.82471]},"properties":{"name":"Puy des Gouttes","country":"France","website":null,"opening_hours":null,"capacity":null,"phone":null,"address":null,"ele":"1134","operator":null,"wikipedia":"fr:Puys Chopine et des Gouttes","wikidata":"Q3411123","description":null,"wheelchair":null,"osmType":"node","osmId":859337215,"elevation":"1134","type":"scoria"}},{"type":"Feature","geometry":{"type":"Point","coordinates":[2.93588,45.57198]},"properties":{"name":"Le Tartaret","country":"France","website":null,"opening_hours":null,"capacity":null,"phone":null,"address":null,"ele":"957","operator":null,"wikipedia":null,"wikidata":null,"description":null,"wheelchair":null,"osmType":"node","osmId":873727748,"elevation":"957","type":"scoria"}},{"type":"Feature","geometry":{"type":"Point","coordinates":[2.80275,45.56108]},"properties":{"name":"Pic du Capucin","country":"France","website":null,"opening_hours":null,"capacity":null,"phone":null,"address":null,"ele":"1468","operator":null,"wikipedia":null,"wikidata":"Q31640298","description":null,"wheelchair":null,"osmType":"node","osmId":873755851,"elevation":"1468"}},{"type":"Feature","geometry":{"type":"Point","coordinates":[2.80177,45.54367]},"properties":{"name":"Puy de Cliergue","country":"France","website":null,"opening_hours":null,"capacity":null,"phone":null,"address":null,"ele":"1691","operator":null,"wikipedia":null,"wikidata":"Q31676227","description":null,"wheelchair":null,"osmType":"node","osmId":873773521,"elevation":"1691"}},{"type":"Feature","geometry":{"type":"Point","coordinates":[3.18061,45.75583]},"properties":{"name":"Puy d'Anzelle","country":"France","website":null,"opening_hours":null,"capacity":null,"phone":null,"address":null,"ele":"529","operator":null,"wikipedia":null,"wikidata":null,"description":null,"wheelchair":null,"osmType":"node","osmId":873803835,"elevation":"529"}},{"type":"Feature","geometry":{"type":"Point","coordinates":[3.19485,45.75386]},"properties":{"name":"Puy de Bane","country":"France","website":null,"opening_hours":null,"capacity":null,"phone":null,"address":null,"ele":"543","operator":null,"wikipedia":null,"wikidata":null,"description":null,"wheelchair":null,"osmType":"node","osmId":873803841,"elevation":"543"}},{"type":"Feature","geometry":{"type":"Point","coordinates":[3.07933,45.73094]},"properties":{"name":"Montrognon","country":"France","website":null,"opening_hours":null,"capacity":null,"phone":null,"address":null,"ele":"699","operator":null,"wikipedia":null,"wikidata":null,"description":null,"wheelchair":null,"osmType":"node","osmId":903707711,"elevation":"699"}},{"type":"Feature","geometry":{"type":"Point","coordinates":[2.94681,45.81862]},"properties":{"name":"Puy de Lemptégy","country":"France","website":null,"opening_hours":null,"capacity":null,"phone":null,"address":null,"ele":"970","operator":null,"wikipedia":"fr:Lemptégy","wikidata":"Q3229393","description":null,"wheelchair":null,"osmType":"node","osmId":965319919,"elevation":"970"}},{"type":"Feature","geometry":{"type":"Point","coordinates":[2.96722,45.9056]},"properties":{"name":"Maar de Beaunit","country":"France","website":null,"opening_hours":null,"capacity":null,"phone":null,"address":null,"ele":"784","operator":null,"wikipedia":null,"wikidata":null,"description":null,"wheelchair":null,"osmType":"node","osmId":968037486,"elevation":"784","type":"maar"}},{"type":"Feature","geometry":{"type":"Point","coordinates":[2.81306,45.52008]},"properties":{"name":"Puy Gros","country":"France","website":null,"opening_hours":null,"capacity":null,"phone":null,"address":null,"ele":"1793","operator":null,"wikipedia":null,"wikidata":null,"description":null,"wheelchair":null,"osmType":"node","osmId":969134047,"elevation":"1793"}},{"type":"Feature","geometry":{"type":"Point","coordinates":[2.82609,45.50871]},"properties":{"name":"Puy de Paillaret","country":"France","website":null,"opening_hours":null,"capacity":null,"phone":null,"address":null,"ele":"1721","operator":null,"wikipedia":null,"wikidata":"Q31635050","description":null,"wheelchair":null,"osmType":"node","osmId":969134185,"elevation":"1721"}},{"type":"Feature","geometry":{"type":"Point","coordinates":[2.95115,45.85285]},"properties":{"name":"Puy de Louchadière","country":"France","website":null,"opening_hours":null,"capacity":null,"phone":null,"address":null,"ele":"1198","operator":null,"wikipedia":"fr:Puy de Louchadière","wikidata":"Q3411091","description":null,"wheelchair":null,"osmType":"node","osmId":969810237,"elevation":"1198","type":"scoria"}},{"type":"Feature","geometry":{"type":"Point","coordinates":[2.96297,45.8578]},"properties":{"name":"Puy de Ténuzet","country":"France","website":null,"opening_hours":null,"capacity":null,"phone":null,"address":null,"ele":"1056","operator":null,"wikipedia":null,"wikidata":null,"description":null,"wheelchair":null,"osmType":"node","osmId":969810243,"elevation":"1056","type":"scoria"}},{"type":"Feature","geometry":{"type":"Point","coordinates":[2.95502,45.82788]},"properties":{"name":"Puy Chopine","country":"France","website":null,"opening_hours":null,"capacity":null,"phone":null,"address":null,"ele":"1181","operator":null,"wikipedia":"fr:Puys Chopine et des Gouttes","wikidata":"Q3411123","description":null,"wheelchair":null,"osmType":"node","osmId":986454316,"elevation":"1181","type":"scoria"}},{"type":"Feature","geometry":{"type":"Point","coordinates":[2.97709,45.87997]},"properties":{"name":"Puy de Paugnat","country":"France","website":null,"opening_hours":null,"capacity":null,"phone":null,"address":null,"ele":"898","operator":null,"wikipedia":"fr:Puy de Paugnat","wikidata":"Q3411096","description":null,"wheelchair":null,"osmType":"node","osmId":986807985,"elevation":"898","type":"scoria"}},{"type":"Feature","geometry":{"type":"Point","coordinates":[2.98363,45.86015]},"properties":{"name":"Puy de la Nugère","country":"France","website":null,"opening_hours":null,"capacity":null,"phone":null,"address":null,"ele":"988","operator":null,"wikipedia":"fr:Puy de la Nugère","wikidata":"Q3411100","description":null,"wheelchair":null,"osmType":"node","osmId":986815039,"elevation":"988","type":"complex"}},{"type":"Feature","geometry":{"type":"Point","coordinates":[3.15698,45.51837]},"properties":{"name":"Puy d'Ysson","country":"France","website":null,"opening_hours":null,"capacity":null,"phone":null,"address":null,"ele":"856","operator":null,"wikipedia":null,"wikidata":null,"description":null,"wheelchair":null,"osmType":"node","osmId":988342998,"elevation":"856"}},{"type":"Feature","geometry":{"type":"Point","coordinates":[2.8214,45.63304]},"properties":{"name":"Roche Sanadoire","country":"France","website":null,"opening_hours":null,"capacity":null,"phone":null,"address":null,"ele":"1290","operator":null,"wikipedia":null,"wikidata":null,"description":null,"wheelchair":null,"osmType":"node","osmId":988991381,"elevation":"1290"}},{"type":"Feature","geometry":{"type":"Point","coordinates":[2.96278,45.84226]},"properties":{"name":"Puy de la Coquille","country":"France","website":null,"opening_hours":null,"capacity":null,"phone":null,"address":null,"ele":"1152","operator":null,"wikipedia":"fr:Puy de la Coquille","wikidata":"Q21532074","description":null,"wheelchair":null,"osmType":"node","osmId":1010816200,"elevation":"1152","type":"scoria"}},{"type":"Feature","geometry":{"type":"Point","coordinates":[2.96596,45.84676]},"properties":{"name":"Puy de Jumes","country":"France","website":null,"opening_hours":null,"capacity":null,"phone":null,"address":null,"ele":"1161","operator":null,"wikipedia":null,"wikidata":"Q21532108","description":null,"wheelchair":null,"osmType":"node","osmId":1010816202,"elevation":"1161","type":"scoria"}},{"type":"Feature","geometry":{"type":"Point","coordinates":[2.96972,45.82449]},"properties":{"name":"Puy de Chaumont","country":"France","website":null,"opening_hours":null,"capacity":null,"phone":null,"address":null,"ele":"1111","operator":null,"wikipedia":"fr:Puy de Chaumont","wikidata":"Q21532096","description":null,"wheelchair":null,"osmType":"node","osmId":1010816206,"elevation":"1111","type":"scoria"}},{"type":"Feature","geometry":{"type":"Point","coordinates":[3.24288,45.67986]},"properties":{"name":"Puy Saint-Romain","country":"France","website":null,"opening_hours":null,"capacity":null,"phone":null,"address":null,"ele":"781","operator":null,"wikipedia":"fr:Puy Saint-Romain","wikidata":"Q3411080","description":null,"wheelchair":null,"osmType":"node","osmId":1012793695,"elevation":"781"}},{"type":"Feature","geometry":{"type":"Point","coordinates":[2.95614,45.71659]},"properties":{"name":"Puy de Mercœur","country":"France","website":null,"opening_hours":null,"capacity":null,"phone":null,"address":null,"ele":"1249","operator":null,"wikipedia":"fr:Puy de Mercœur","wikidata":"Q3411093","description":null,"wheelchair":null,"osmType":"node","osmId":1048182386,"elevation":"1249","type":"scoria"}},{"type":"Feature","geometry":{"type":"Point","coordinates":[2.93114,45.73813]},"properties":{"name":"Puys de Barme","country":"France","website":null,"opening_hours":null,"capacity":null,"phone":null,"address":null,"ele":"1102","operator":null,"wikipedia":null,"wikidata":null,"description":null,"wheelchair":null,"osmType":"node","osmId":1048205582,"elevation":"1102","type":"scoria"}},{"type":"Feature","geometry":{"type":"Point","coordinates":[2.94827,45.66815]},"properties":{"name":"Puy de la Combegrasse","country":"France","website":null,"opening_hours":null,"capacity":null,"phone":null,"address":null,"ele":"1121","operator":null,"wikipedia":"fr:Puy de la Combegrasse","wikidata":"Q92096639","description":null,"wheelchair":null,"osmType":"node","osmId":1049134499,"elevation":"1121","type":"scoria"}},{"type":"Feature","geometry":{"type":"Point","coordinates":[2.95581,45.66315]},"properties":{"name":"Puy de la Rodde","country":"France","website":null,"opening_hours":null,"capacity":null,"phone":null,"address":null,"ele":"1127","operator":null,"wikipedia":"fr:Puy de la Rodde","wikidata":"Q97292947","description":null,"wheelchair":null,"osmType":"node","osmId":1049134501,"elevation":"1127","type":"scoria"}},{"type":"Feature","geometry":{"type":"Point","coordinates":[2.94383,45.68245]},"properties":{"name":"Puy de la Toupe","country":"France","website":null,"opening_hours":null,"capacity":null,"phone":null,"address":null,"ele":"1074","operator":null,"wikipedia":"fr:Puy de la Toupe","wikidata":"Q97188487","description":null,"wheelchair":null,"osmType":"node","osmId":1049134504,"elevation":"1074","type":"scoria"}},{"type":"Feature","geometry":{"type":"Point","coordinates":[2.96134,45.68574]},"properties":{"name":"Puy de Vichatel","country":"France","website":null,"opening_hours":null,"capacity":null,"phone":null,"address":null,"ele":"1094","operator":null,"wikipedia":"fr:Puy de Vichatel","wikidata":"Q31669935","description":null,"wheelchair":null,"osmType":"node","osmId":1049134516,"elevation":"1094","type":"scoria"}},{"type":"Feature","geometry":{"type":"Point","coordinates":[2.94283,45.70533]},"properties":{"name":"Puy de Montjuger","country":"France","website":null,"opening_hours":null,"capacity":null,"phone":null,"address":null,"ele":"1142","operator":null,"wikipedia":"fr:Puy de Montjuger","wikidata":"Q31682156","description":null,"wheelchair":null,"osmType":"node","osmId":1049152033,"elevation":"1142","type":"scoria"}},{"type":"Feature","geometry":{"type":"Point","coordinates":[2.94628,45.67173]},"properties":{"name":"Puy de Boursoux","country":"France","website":null,"opening_hours":null,"capacity":null,"phone":null,"address":null,"ele":"1057","operator":null,"wikipedia":null,"wikidata":null,"description":null,"wheelchair":null,"osmType":"node","osmId":1049152062,"elevation":"1057","type":"scoria"}},{"type":"Feature","geometry":{"type":"Point","coordinates":[2.94424,45.69254]},"properties":{"name":"Puy de Montchal","country":"France","website":null,"opening_hours":null,"capacity":null,"phone":null,"address":null,"ele":"1094","operator":null,"wikipedia":"fr:Puy de Montchal (Aydat)","wikidata":"Q31669898","description":null,"wheelchair":null,"osmType":"node","osmId":1049152070,"elevation":"1094","type":"scoria"}},{"type":"Feature","geometry":{"type":"Point","coordinates":[2.95099,45.86299]},"properties":{"name":"Puy de Tressous","country":"France","website":null,"opening_hours":null,"capacity":null,"phone":null,"address":null,"ele":"985","operator":null,"wikipedia":null,"wikidata":"Q31394849","description":null,"wheelchair":null,"osmType":"node","osmId":1091575301,"elevation":"985","type":"scoria"}},{"type":"Feature","geometry":{"type":"Point","coordinates":[2.97,45.79548]},"properties":{"name":"Puy Pariou","country":"France","website":null,"opening_hours":null,"capacity":null,"phone":null,"address":null,"ele":"1209","operator":null,"wikipedia":"fr:Puy Pariou","wikidata":"Q3411078","description":null,"wheelchair":"no","osmType":"node","osmId":1091609504,"elevation":"1209","type":"scoria"}},{"type":"Feature","geometry":{"type":"Point","coordinates":[2.98385,45.81955]},"properties":{"name":"Petit Sarcouy","country":"France","website":null,"opening_hours":null,"capacity":null,"phone":null,"address":null,"ele":"1068","operator":null,"wikipedia":null,"wikidata":null,"description":null,"wheelchair":null,"osmType":"node","osmId":1091609569,"elevation":"1068","type":"scoria"}},{"type":"Feature","geometry":{"type":"Point","coordinates":[2.9625,45.80456]},"properties":{"name":"Puy de Fraisse","country":"France","website":null,"opening_hours":null,"capacity":null,"phone":null,"address":null,"ele":"1120","operator":null,"wikipedia":null,"wikidata":"Q31394856","description":null,"wheelchair":null,"osmType":"node","osmId":1091637594,"elevation":"1120","type":"scoria"}},{"type":"Feature","geometry":{"type":"Point","coordinates":[2.95527,45.79056]},"properties":{"name":"Le Grand Suchet","country":"France","website":null,"opening_hours":null,"capacity":null,"phone":null,"address":null,"ele":"1231","operator":null,"wikipedia":"fr:Grand Suchet","wikidata":"Q3114585","description":null,"wheelchair":null,"osmType":"node","osmId":1091662398,"elevation":"1231","type":"scoria"}},{"type":"Feature","geometry":{"type":"Point","coordinates":[2.95952,45.79469]},"properties":{"name":"Puy de Clierzou","country":"France","website":null,"opening_hours":null,"capacity":null,"phone":null,"address":null,"ele":"1197","operator":null,"wikipedia":"fr:Puy de Clierzou","wikidata":"Q28493689","description":null,"wheelchair":null,"osmType":"node","osmId":1091662512,"elevation":"1197","type":"lava_dome"}},{"type":"Feature","geometry":{"type":"Point","coordinates":[2.95386,45.75773]},"properties":{"name":"Puy des Grosmanaux","country":"France","website":null,"opening_hours":null,"capacity":null,"phone":null,"address":null,"ele":"1127","operator":null,"wikipedia":null,"wikidata":null,"description":null,"wheelchair":null,"osmType":"node","osmId":1091693737,"elevation":"1127","type":"scoria"}},{"type":"Feature","geometry":{"type":"Point","coordinates":[2.94855,45.75446]},"properties":{"name":"Puy de Salomon","country":"France","website":null,"opening_hours":null,"capacity":null,"phone":null,"address":null,"ele":"1152","operator":null,"wikipedia":null,"wikidata":"Q31394956","description":null,"wheelchair":null,"osmType":"node","osmId":1091693738,"elevation":"1152","type":"scoria"}},{"type":"Feature","geometry":{"type":"Point","coordinates":[2.94509,45.7375]},"properties":{"name":"Puy de la Moréno","country":"France","website":null,"opening_hours":null,"capacity":null,"phone":null,"address":null,"ele":"1159","operator":null,"wikipedia":null,"wikidata":"Q32161590","description":null,"wheelchair":null,"osmType":"node","osmId":1091725262,"elevation":"1159","type":"scoria"}},{"type":"Feature","geometry":{"type":"Point","coordinates":[4.08223,45.07148]},"properties":{"name":"La Mézère","country":"France","website":null,"opening_hours":null,"capacity":null,"phone":null,"address":null,"ele":"1203","operator":null,"wikipedia":null,"wikidata":null,"description":"1203 m 43260 Queyrières","wheelchair":null,"osmType":"node","osmId":1099592904,"elevation":"1203"}},{"type":"Feature","geometry":{"type":"Point","coordinates":[2.95458,45.89238]},"properties":{"name":"Puy de Verrières","country":"France","website":null,"opening_hours":null,"capacity":null,"phone":null,"address":null,"ele":"937","operator":null,"wikipedia":null,"wikidata":null,"description":null,"wheelchair":null,"osmType":"node","osmId":1377674980,"elevation":"937","type":"scoria"}},{"type":"Feature","geometry":{"type":"Point","coordinates":[3.98715,44.90328]},"properties":{"name":"Chauvelon","country":"France","website":null,"opening_hours":null,"capacity":null,"phone":null,"address":null,"ele":"1161","operator":null,"wikipedia":null,"wikidata":null,"description":null,"wheelchair":null,"osmType":"node","osmId":1429917576,"elevation":"1161"}},{"type":"Feature","geometry":{"type":"Point","coordinates":[3.97882,44.90803]},"properties":{"name":"Le Chouvel","country":"France","website":null,"opening_hours":null,"capacity":null,"phone":null,"address":null,"ele":"1176","operator":null,"wikipedia":null,"wikidata":null,"description":null,"wheelchair":null,"osmType":"node","osmId":1429917597,"elevation":"1176"}},{"type":"Feature","geometry":{"type":"Point","coordinates":[4.25017,44.90302]},"properties":{"name":"Rocher de Pialoux","country":"France","website":null,"opening_hours":null,"capacity":null,"phone":null,"address":null,"ele":"1312","operator":null,"wikipedia":null,"wikidata":null,"description":"1312m\n07310 Borée","wheelchair":null,"osmType":"node","osmId":1529730016,"elevation":"1312"}},{"type":"Feature","geometry":{"type":"Point","coordinates":[3.31547,45.73462]},"properties":{"name":"Petit Turluron","country":"France","website":null,"opening_hours":null,"capacity":null,"phone":null,"address":null,"ele":"562","operator":null,"wikipedia":null,"wikidata":null,"description":null,"wheelchair":null,"osmType":"node","osmId":1559879277,"elevation":"562"}},{"type":"Feature","geometry":{"type":"Point","coordinates":[4.26276,44.62661]},"properties":{"name":null,"country":"France","website":null,"opening_hours":null,"capacity":null,"phone":null,"address":null,"ele":null,"operator":null,"wikipedia":null,"wikidata":null,"description":null,"wheelchair":null,"osmType":"node","osmId":1628133901}},{"type":"Feature","geometry":{"type":"Point","coordinates":[4.22331,44.89384]},"properties":{"name":"Gouleyou","country":"France","website":null,"opening_hours":null,"capacity":null,"phone":null,"address":null,"ele":"1293","operator":null,"wikipedia":null,"wikidata":null,"description":"1293m\n07310 Borée","wheelchair":null,"osmType":"node","osmId":1659190367,"elevation":"1293"}},{"type":"Feature","geometry":{"type":"Point","coordinates":[2.96133,45.78989]},"properties":{"name":"Le Petit Suchet","country":"France","website":null,"opening_hours":null,"capacity":null,"phone":null,"address":null,"ele":"1198","operator":null,"wikipedia":"fr:Petit Suchet","wikidata":"Q3377210","description":null,"wheelchair":null,"osmType":"node","osmId":1741447186,"elevation":"1198","type":"lava_dome"}},{"type":"Feature","geometry":{"type":"Point","coordinates":[3.96983,45.63293]},"properties":{"name":"Mont Semiol","country":"France","website":null,"opening_hours":null,"capacity":null,"phone":null,"address":null,"ele":"1021","operator":null,"wikipedia":null,"wikidata":null,"description":null,"wheelchair":null,"osmType":"node","osmId":1756962898,"elevation":"1021"}},{"type":"Feature","geometry":{"type":"Point","coordinates":[2.7552,45.05417]},"properties":{"name":"Puy Brunet","country":"France","website":null,"opening_hours":null,"capacity":null,"phone":null,"address":null,"ele":"1806","operator":null,"wikipedia":null,"wikidata":"Q31672342","description":null,"wheelchair":null,"osmType":"node","osmId":1757023997,"elevation":"1806"}},{"type":"Feature","geometry":{"type":"Point","coordinates":[2.94893,45.72503]},"properties":{"name":"Puy Pelat","country":"France","website":null,"opening_hours":null,"capacity":null,"phone":null,"address":null,"ele":"1204","operator":null,"wikipedia":null,"wikidata":"Q31394962","description":null,"wheelchair":null,"osmType":"node","osmId":1764589491,"elevation":"1204","type":"scoria"}},{"type":"Feature","geometry":{"type":"Point","coordinates":[2.94423,45.73336]},"properties":{"name":"Puy de Montchar","country":"France","website":null,"opening_hours":null,"capacity":null,"phone":null,"address":null,"ele":"1184","operator":null,"wikipedia":"fr:Puy de Montchar","wikidata":"Q31394963","description":null,"wheelchair":null,"osmType":"node","osmId":1764589492,"elevation":"1184","type":"lava_dome"}},{"type":"Feature","geometry":{"type":"Point","coordinates":[2.84537,45.59193]},"properties":{"name":"Puy de la Tache","country":"France","website":null,"opening_hours":null,"capacity":null,"phone":null,"address":null,"ele":"1632","operator":null,"wikipedia":null,"wikidata":"Q31629154","description":null,"wheelchair":null,"osmType":"node","osmId":1775361934,"elevation":"1632"}},{"type":"Feature","geometry":{"type":"Point","coordinates":[2.83965,45.57814]},"properties":{"name":"Puy de Barbier","country":"France","website":null,"opening_hours":null,"capacity":null,"phone":null,"address":null,"ele":"1703","operator":null,"wikipedia":null,"wikidata":"Q31651985","description":null,"wheelchair":null,"osmType":"node","osmId":1775361980,"elevation":"1703"}},{"type":"Feature","geometry":{"type":"Point","coordinates":[4.19664,45.08041]},"properties":{"name":"Suc du Mounier","country":"France","website":null,"opening_hours":null,"capacity":null,"phone":null,"address":null,"ele":"1208","operator":null,"wikipedia":null,"wikidata":null,"description":"1208 m 43200 Saint-Jeures","wheelchair":null,"osmType":"node","osmId":1799147068,"elevation":"1208"}},{"type":"Feature","geometry":{"type":"Point","coordinates":[4.11561,45.03804]},"properties":{"name":"Le Mounier","country":"France","website":null,"opening_hours":null,"capacity":null,"phone":null,"address":null,"ele":"1408","operator":null,"wikipedia":null,"wikidata":null,"description":"1408 m 43260 Saint-Julien-Chapteuil","wheelchair":null,"osmType":"node","osmId":1799709005,"elevation":"1408"}},{"type":"Feature","geometry":{"type":"Point","coordinates":[4.13052,45.05478]},"properties":{"name":"Le Testavoyre","country":"France","website":null,"opening_hours":null,"capacity":null,"phone":null,"address":null,"ele":"1436","operator":null,"wikipedia":null,"wikidata":"Q3519093","description":"1436 m point culminant du massif du Meygal 43260 Queyrières","wheelchair":null,"osmType":"node","osmId":1799709008,"elevation":"1436"}},{"type":"Feature","geometry":{"type":"Point","coordinates":[2.71985,45.10043]},"properties":{"name":"Puy Bataillouse","country":"France","website":null,"opening_hours":null,"capacity":null,"phone":null,"address":null,"ele":"1677","operator":null,"wikipedia":null,"wikidata":"Q16671609","description":null,"wheelchair":null,"osmType":"node","osmId":1800509904,"elevation":"1677"}},{"type":"Feature","geometry":{"type":"Point","coordinates":[2.63501,45.0376]},"properties":{"name":"Puech de Bécude","country":"France","website":null,"opening_hours":null,"capacity":null,"phone":null,"address":null,"ele":"1477","operator":null,"wikipedia":null,"wikidata":null,"description":null,"wheelchair":null,"osmType":"node","osmId":1801964427,"elevation":"1477"}},{"type":"Feature","geometry":{"type":"Point","coordinates":[4.0013,44.90629]},"properties":{"name":"Le Petit Suc","country":"France","website":null,"opening_hours":null,"capacity":null,"phone":null,"address":null,"ele":"1265","operator":null,"wikipedia":null,"wikidata":null,"description":"Petit Suc monts Breysse 1265m 43150 Le Monastier-sur-Gazeille","wheelchair":null,"osmType":"node","osmId":1833149630,"elevation":"1265"}},{"type":"Feature","geometry":{"type":"Point","coordinates":[4.01331,44.90155]},"properties":{"name":"Le Grand Suc","country":"France","website":null,"opening_hours":null,"capacity":null,"phone":null,"address":null,"ele":"1289","operator":null,"wikipedia":null,"wikidata":null,"description":"1278m Bois de Breysse 43150 Alleyrac","wheelchair":null,"osmType":"node","osmId":1833185547,"elevation":"1289"}},{"type":"Feature","geometry":{"type":"Point","coordinates":[4.08105,45.53751]},"properties":{"name":"Montsupt","country":"France","website":null,"opening_hours":null,"capacity":null,"phone":null,"address":null,"ele":"642","operator":null,"wikipedia":null,"wikidata":null,"description":null,"wheelchair":null,"osmType":"node","osmId":1842848059,"elevation":"642"}},{"type":"Feature","geometry":{"type":"Point","coordinates":[2.72526,44.99668]},"properties":{"name":"Puy de Bâne","country":"France","website":null,"opening_hours":null,"capacity":null,"phone":null,"address":null,"ele":"1464.76","operator":null,"wikipedia":null,"wikidata":null,"description":null,"wheelchair":null,"osmType":"node","osmId":1853201829,"elevation":"1464.76"}},{"type":"Feature","geometry":{"type":"Point","coordinates":[2.77153,45.07794]},"properties":{"name":"L'Aiguillon","country":"France","website":null,"opening_hours":null,"capacity":null,"phone":null,"address":null,"ele":"1665","operator":null,"wikipedia":null,"wikidata":null,"description":null,"wheelchair":null,"osmType":"node","osmId":1953991982,"elevation":"1665"}},{"type":"Feature","geometry":{"type":"Point","coordinates":[2.76881,45.07031]},"properties":{"name":"Puy du Rocher","country":"France","website":null,"opening_hours":null,"capacity":null,"phone":null,"address":null,"ele":"1813","operator":null,"wikipedia":"fr:Puy du Rocher","wikidata":"Q3411105","description":null,"wheelchair":null,"osmType":"node","osmId":1953991987,"elevation":"1813"}},{"type":"Feature","geometry":{"type":"Point","coordinates":[2.77625,45.08198]},"properties":{"name":"Rocher de la Sagne du Porc","country":"France","website":null,"opening_hours":null,"capacity":null,"phone":null,"address":null,"ele":"1717","operator":null,"wikipedia":null,"wikidata":null,"description":null,"wheelchair":null,"osmType":"node","osmId":1953991992,"elevation":"1717"}},{"type":"Feature","geometry":{"type":"Point","coordinates":[2.93003,45.34572]},"properties":{"name":"Mont Chamaroux","country":"France","website":null,"opening_hours":null,"capacity":null,"phone":null,"address":null,"ele":"1476","operator":null,"wikipedia":null,"wikidata":null,"description":null,"wheelchair":null,"osmType":"node","osmId":1975288433,"elevation":"1476"}},{"type":"Feature","geometry":{"type":"Point","coordinates":[2.9771,44.64987]},"properties":{"name":"Puy de Gudette","country":"France","website":null,"opening_hours":null,"capacity":null,"phone":null,"address":null,"ele":"1427","operator":null,"wikipedia":null,"wikidata":"Q1976297","description":null,"wheelchair":null,"osmType":"node","osmId":2000431012,"elevation":"1427"}},{"type":"Feature","geometry":{"type":"Point","coordinates":[6.45409,48.4273]},"properties":{"name":"La Molotte","country":"France","website":null,"opening_hours":null,"capacity":null,"phone":null,"address":null,"ele":"360","operator":null,"wikipedia":"fr:Essey-la-Côte#Volcan éteint d'Essey-la-Côte","wikidata":null,"description":"manifestation volcanique","wheelchair":null,"osmType":"node","osmId":2090781600,"elevation":"360"}},{"type":"Feature","geometry":{"type":"Point","coordinates":[2.98494,45.14353]},"properties":{"name":"Rocher de Laval","country":"France","website":null,"opening_hours":null,"capacity":null,"phone":null,"address":null,"ele":"1006","operator":null,"wikipedia":null,"wikidata":null,"description":null,"wheelchair":null,"osmType":"node","osmId":2265769999,"elevation":"1006","type":"neck"}},{"type":"Feature","geometry":{"type":"Point","coordinates":[4.05032,45.23626]},"properties":{"name":"Plateau de la Madeleine","country":"France","website":null,"opening_hours":null,"capacity":null,"phone":null,"address":null,"ele":"960","operator":null,"wikipedia":null,"wikidata":null,"description":"plateau d'origine volcanique culminant à 971 m 43130 Retournac","wheelchair":null,"osmType":"node","osmId":2320102441,"elevation":"960"}},{"type":"Feature","geometry":{"type":"Point","coordinates":[4.12998,45.14296]},"properties":{"name":"Saint-Roch","country":"France","website":null,"opening_hours":null,"capacity":null,"phone":null,"address":null,"ele":"918","operator":null,"wikipedia":null,"wikidata":null,"description":"918 m 43200 Yssingeaux","wheelchair":null,"osmType":"node","osmId":2327449864,"elevation":"918"}},{"type":"Feature","geometry":{"type":"Point","coordinates":[2.75088,45.04412]},"properties":{"name":"Puy de la Cède","country":"France","website":null,"opening_hours":null,"capacity":null,"phone":null,"address":null,"ele":"1768","operator":null,"wikipedia":null,"wikidata":"Q49064983","description":null,"wheelchair":null,"osmType":"node","osmId":2382869847,"elevation":"1768"}},{"type":"Feature","geometry":{"type":"Point","coordinates":[2.73109,45.02637]},"properties":{"name":"Puy Gros","country":"France","website":null,"opening_hours":null,"capacity":null,"phone":null,"address":null,"ele":"1594","operator":null,"wikipedia":null,"wikidata":"Q49064995","description":null,"wheelchair":null,"osmType":"node","osmId":2384778931,"elevation":"1594"}},{"type":"Feature","geometry":{"type":"Point","coordinates":[2.6998,45.08374]},"properties":{"name":"Le Griounou","country":"France","website":null,"opening_hours":null,"capacity":null,"phone":null,"address":null,"ele":"1514","operator":null,"wikipedia":null,"wikidata":null,"description":null,"wheelchair":null,"osmType":"node","osmId":2396494908,"elevation":"1514"}},{"type":"Feature","geometry":{"type":"Point","coordinates":[3.33001,43.65104]},"properties":{"name":"La Roque","country":"France","website":null,"opening_hours":null,"capacity":null,"phone":null,"address":null,"ele":null,"operator":null,"wikipedia":null,"wikidata":null,"description":null,"wheelchair":null,"osmType":"node","osmId":2405819494}},{"type":"Feature","geometry":{"type":"Point","coordinates":[2.71078,45.11009]},"properties":{"name":"Puy de Peyre Arse","country":"France","website":null,"opening_hours":null,"capacity":null,"phone":null,"address":null,"ele":"1806","operator":null,"wikipedia":"fr:Puy de Peyre-Arse","wikidata":"Q2501948","description":null,"wheelchair":null,"osmType":"node","osmId":2420548299,"elevation":"1806"}},{"type":"Feature","geometry":{"type":"Point","coordinates":[2.81289,45.63139]},"properties":{"name":"Roche Tuillière","country":"France","website":null,"opening_hours":null,"capacity":null,"phone":null,"address":null,"ele":"1288","operator":null,"wikipedia":null,"wikidata":null,"description":null,"wheelchair":null,"osmType":"node","osmId":2420942707,"elevation":"1288"}},{"type":"Feature","geometry":{"type":"Point","coordinates":[2.84525,45.58268]},"properties":{"name":"Puy de Monne","country":"France","website":null,"opening_hours":null,"capacity":null,"phone":null,"address":null,"ele":"1692","operator":null,"wikipedia":null,"wikidata":"Q31676160","description":null,"wheelchair":null,"osmType":"node","osmId":2425745944,"elevation":"1692"}},{"type":"Feature","geometry":{"type":"Point","coordinates":[2.7792,45.04473]},"properties":{"name":"Puy de Grandval","country":"France","website":null,"opening_hours":null,"capacity":null,"phone":null,"address":null,"ele":"1648","operator":null,"wikipedia":null,"wikidata":"Q31672293","description":null,"wheelchair":null,"osmType":"node","osmId":2425793686,"elevation":"1648"}},{"type":"Feature","geometry":{"type":"Point","coordinates":[2.80034,45.53346]},"properties":{"name":"Tour Carrée","country":"France","website":null,"opening_hours":null,"capacity":null,"phone":null,"address":null,"ele":"1738","operator":null,"wikipedia":null,"wikidata":null,"description":null,"wheelchair":null,"osmType":"node","osmId":2429514290,"elevation":"1738"}},{"type":"Feature","geometry":{"type":"Point","coordinates":[6.04157,48.55232]},"properties":{"name":"Lave de Thélod","country":"France","website":null,"opening_hours":null,"capacity":null,"phone":null,"address":null,"ele":"400","operator":null,"wikipedia":null,"wikidata":null,"description":null,"wheelchair":null,"osmType":"node","osmId":2483641402,"elevation":"400"}},{"type":"Feature","geometry":{"type":"Point","coordinates":[4.33816,44.70652]},"properties":{"name":"Fontalazon","country":"France","website":null,"opening_hours":null,"capacity":null,"phone":null,"address":null,"ele":"814","operator":null,"wikipedia":null,"wikidata":null,"description":"814m\n07530 Vallées-d'Antraigues-Asperjoc","wheelchair":null,"osmType":"node","osmId":2865331289,"elevation":"814"}},{"type":"Feature","geometry":{"type":"Point","coordinates":[4.35599,44.7905]},"properties":{"name":"Chapaussel","country":"France","website":null,"opening_hours":null,"capacity":null,"phone":null,"address":null,"ele":"1272","operator":null,"wikipedia":null,"wikidata":null,"description":null,"wheelchair":null,"osmType":"node","osmId":2865336101,"elevation":"1272"}},{"type":"Feature","geometry":{"type":"Point","coordinates":[2.96902,45.81306]},"properties":{"name":"Croix Mory","country":"France","website":null,"opening_hours":null,"capacity":null,"phone":null,"address":null,"ele":"1011","operator":null,"wikipedia":null,"wikidata":null,"description":null,"wheelchair":null,"osmType":"node","osmId":3059008275,"elevation":"1011","type":"scoria"}},{"type":"Feature","geometry":{"type":"Point","coordinates":[2.92773,45.65793]},"properties":{"name":"Puy de l'Enfer","country":"France","website":null,"opening_hours":null,"capacity":null,"phone":null,"address":null,"ele":"1086","operator":null,"wikipedia":null,"wikidata":"Q113623008","description":null,"wheelchair":null,"osmType":"node","osmId":3066700555,"elevation":"1086","type":"scoria"}},{"type":"Feature","geometry":{"type":"Point","coordinates":[3.50277,43.2985]},"properties":{"name":"Mont Saint-Loup","country":"France","website":null,"opening_hours":null,"capacity":null,"phone":null,"address":null,"ele":"113","operator":null,"wikipedia":null,"wikidata":null,"description":null,"wheelchair":null,"osmType":"node","osmId":3104840629,"elevation":"113"}},{"type":"Feature","geometry":{"type":"Point","coordinates":[3.24999,45.76523]},"properties":{"name":"Puy de Mur","country":"France","website":null,"opening_hours":null,"capacity":null,"phone":null,"address":null,"ele":"600","operator":null,"wikipedia":null,"wikidata":"Q31394902","description":null,"wheelchair":null,"osmType":"node","osmId":3269528371,"elevation":"600"}},{"type":"Feature","geometry":{"type":"Point","coordinates":[3.01265,44.57413]},"properties":{"name":"Suc de Born","country":"France","website":null,"opening_hours":null,"capacity":null,"phone":null,"address":null,"ele":"1388","operator":null,"wikipedia":null,"wikidata":"Q31394508","description":null,"wheelchair":null,"osmType":"node","osmId":3368581927,"elevation":"1388"}},{"type":"Feature","geometry":{"type":"Point","coordinates":[4.21509,44.69777]},"properties":{"name":"Cratère de la Crose","country":"France","website":null,"opening_hours":null,"capacity":null,"phone":null,"address":null,"ele":"706","operator":null,"wikipedia":null,"wikidata":null,"description":null,"wheelchair":null,"osmType":"node","osmId":3392497294,"elevation":"706","type":"stratovolcano"}},{"type":"Feature","geometry":{"type":"Point","coordinates":[4.2184,44.69458]},"properties":{"name":"Suc de la Gravenne","country":"France","website":null,"opening_hours":null,"capacity":null,"phone":null,"address":null,"ele":"849","operator":null,"wikipedia":null,"wikidata":"Q31681107","description":"849m\n07560 Montpezat-Sous-Bauzon","wheelchair":null,"osmType":"node","osmId":3398458360,"elevation":"849"}},{"type":"Feature","geometry":{"type":"Point","coordinates":[3.64991,45.04874]},"properties":{"name":"La Durande","country":"France","website":null,"opening_hours":null,"capacity":null,"phone":null,"address":null,"ele":"1299","operator":null,"wikipedia":null,"wikidata":"Q6462288","description":null,"wheelchair":null,"osmType":"node","osmId":3440030591,"elevation":"1299"}},{"type":"Feature","geometry":{"type":"Point","coordinates":[3.76512,44.9401]},"properties":{"name":"Mont Devès","country":"France","website":null,"opening_hours":null,"capacity":null,"phone":null,"address":null,"ele":"1421","operator":null,"wikipedia":null,"wikidata":null,"description":null,"wheelchair":null,"osmType":"node","osmId":3440063965,"elevation":"1421"}},{"type":"Feature","geometry":{"type":"Point","coordinates":[3.76936,44.92682]},"properties":{"name":"Mont Recours","country":"France","website":null,"opening_hours":null,"capacity":null,"phone":null,"address":null,"ele":"1382","operator":null,"wikipedia":null,"wikidata":null,"description":null,"wheelchair":null,"osmType":"node","osmId":3440063966,"elevation":"1382"}},{"type":"Feature","geometry":{"type":"Point","coordinates":[3.85462,45.05835]},"properties":{"name":"Mont Denise","country":"France","website":null,"opening_hours":null,"capacity":null,"phone":null,"address":null,"ele":"890","operator":null,"wikipedia":null,"wikidata":"Q3321807","description":"892m\n43000 Polignac","wheelchair":null,"osmType":"node","osmId":3440063967,"elevation":"890"}},{"type":"Feature","geometry":{"type":"Point","coordinates":[3.91749,45.1658]},"properties":{"name":"Suc de Cèneuil","country":"France","website":null,"opening_hours":null,"capacity":null,"phone":null,"address":null,"ele":null,"operator":null,"wikipedia":null,"wikidata":null,"description":"Table d'orientation au sommet","wheelchair":null,"osmType":"node","osmId":3494791748}},{"type":"Feature","geometry":{"type":"Point","coordinates":[3.11849,45.56107]},"properties":{"name":"Puy de Lavelle","country":"France","website":null,"opening_hours":null,"capacity":null,"phone":null,"address":null,"ele":"783","operator":null,"wikipedia":null,"wikidata":null,"description":null,"wheelchair":null,"osmType":"node","osmId":3508582915,"elevation":"783"}},{"type":"Feature","geometry":{"type":"Point","coordinates":[2.94699,45.76098]},"properties":{"name":"Puy Besace","country":"France","website":null,"opening_hours":null,"capacity":null,"phone":null,"address":null,"ele":"1112","operator":null,"wikipedia":null,"wikidata":"Q31394955","description":null,"wheelchair":null,"osmType":"node","osmId":3510166125,"elevation":"1112","type":"scoria"}},{"type":"Feature","geometry":{"type":"Point","coordinates":[2.97426,45.95891]},"properties":{"name":"Puy de Chalard","country":"France","website":null,"opening_hours":null,"capacity":null,"phone":null,"address":null,"ele":"840","operator":null,"wikipedia":"fr:Puy de Chalard","wikidata":"Q3411084","description":null,"wheelchair":null,"osmType":"node","osmId":3551501494,"elevation":"840","type":"scoria"}},{"type":"Feature","geometry":{"type":"Point","coordinates":[4.13666,45.13866]},"properties":{"name":"Montbarnier","country":"France","website":null,"opening_hours":null,"capacity":null,"phone":null,"address":null,"ele":"947","operator":null,"wikipedia":null,"wikidata":null,"description":"947 m 43200 Yssingeaux","wheelchair":null,"osmType":"node","osmId":3633203901,"elevation":"947"}},{"type":"Feature","geometry":{"type":"Point","coordinates":[2.96885,45.77821]},"properties":{"name":"Petit Puy de Dôme","country":"France","website":null,"opening_hours":null,"capacity":null,"phone":null,"address":null,"ele":"1264","operator":null,"wikipedia":null,"wikidata":"Q32158686","description":null,"wheelchair":null,"osmType":"node","osmId":3649431510,"elevation":"1264","type":"scoria"}},{"type":"Feature","geometry":{"type":"Point","coordinates":[2.85435,45.63684]},"properties":{"name":"Puy de Combe-Perret","country":"France","website":null,"opening_hours":null,"capacity":null,"phone":null,"address":null,"ele":"1380","operator":null,"wikipedia":null,"wikidata":null,"description":null,"wheelchair":null,"osmType":"node","osmId":3811618982,"elevation":"1380","type":"scoria"}},{"type":"Feature","geometry":{"type":"Point","coordinates":[4.12765,45.09695]},"properties":{"name":"Suc de Montaigu","country":"France","website":null,"opening_hours":null,"capacity":null,"phone":null,"address":null,"ele":"1241","operator":null,"wikipedia":null,"wikidata":null,"description":"1241m\n43200 Yssingeaux","wheelchair":null,"osmType":"node","osmId":3877574806,"elevation":"1241","type":"suc"}},{"type":"Feature","geometry":{"type":"Point","coordinates":[3.39338,43.54615]},"properties":{"name":"Le Céressou","country":"France","website":null,"opening_hours":null,"capacity":null,"phone":null,"address":null,"ele":"207","operator":null,"wikipedia":null,"wikidata":null,"description":null,"wheelchair":null,"osmType":"node","osmId":3922727967,"elevation":"207"}},{"type":"Feature","geometry":{"type":"Point","coordinates":[2.9617,44.64211]},"properties":{"name":"Truques d'Aubrac","country":"France","website":null,"opening_hours":null,"capacity":null,"phone":null,"address":null,"ele":"1440","operator":null,"wikipedia":null,"wikidata":null,"description":null,"wheelchair":null,"osmType":"node","osmId":4000556256,"elevation":"1440"}},{"type":"Feature","geometry":{"type":"Point","coordinates":[3.0817,45.77656]},"properties":{"name":"Maar de Jaude","country":"France","website":null,"opening_hours":null,"capacity":null,"phone":null,"address":null,"ele":"409","operator":null,"wikipedia":"fr:Maar de Jaude","wikidata":"Q3273698","description":null,"wheelchair":null,"osmType":"node","osmId":4171763313,"elevation":"409","type":"maar"}},{"type":"Feature","geometry":{"type":"Point","coordinates":[2.8879,45.49569]},"properties":{"name":"Cratère-Lac Pavin","country":"France","website":null,"opening_hours":null,"capacity":null,"phone":null,"address":null,"ele":"1197","operator":null,"wikipedia":"fr:Lac Pavin","wikidata":"Q1666367","description":null,"wheelchair":null,"osmType":"node","osmId":4171788890,"elevation":"1197","type":"maar"}},{"type":"Feature","geometry":{"type":"Point","coordinates":[2.92623,45.65358]},"properties":{"name":"Narse d'Espinasse","country":"France","website":null,"opening_hours":null,"capacity":null,"phone":null,"address":null,"ele":"986","operator":null,"wikipedia":null,"wikidata":null,"description":null,"wheelchair":null,"osmType":"node","osmId":4171802251,"elevation":"986","type":"maar"}},{"type":"Feature","geometry":{"type":"Point","coordinates":[2.96732,45.90073]},"properties":{"name":"Puy Gonnard","country":"France","website":null,"opening_hours":null,"capacity":null,"phone":null,"address":null,"ele":"854","operator":null,"wikipedia":null,"wikidata":null,"description":null,"wheelchair":null,"osmType":"node","osmId":4172049491,"elevation":"854","type":"scoria"}},{"type":"Feature","geometry":{"type":"Point","coordinates":[3.0336,45.87898]},"properties":{"name":"Puy de la Bannière","country":"France","website":null,"opening_hours":null,"capacity":null,"phone":null,"address":null,"ele":"733","operator":null,"wikipedia":"fr:Puy de la Bannière","wikidata":"Q3411101","description":null,"wheelchair":null,"osmType":"node","osmId":4172069776,"elevation":"733","type":"scoria"}},{"type":"Feature","geometry":{"type":"Point","coordinates":[2.87785,45.42993]},"properties":{"name":"Lac de la Fage","country":"France","website":null,"opening_hours":null,"capacity":null,"phone":null,"address":null,"ele":"875","operator":null,"wikipedia":null,"wikidata":null,"description":null,"wheelchair":null,"osmType":"node","osmId":4172078516,"elevation":"875","type":"maar"}},{"type":"Feature","geometry":{"type":"Point","coordinates":[2.83084,45.45972]},"properties":{"name":"Lac Chauvet","country":"France","website":null,"opening_hours":null,"capacity":null,"phone":null,"address":null,"ele":"1161","operator":null,"wikipedia":null,"wikidata":null,"description":null,"wheelchair":null,"osmType":"node","osmId":4172078663,"elevation":"1161","type":"maar"}},{"type":"Feature","geometry":{"type":"Point","coordinates":[2.91674,45.38733]},"properties":{"name":"Lac de La Godivelle-d'en-Haut","country":"France","website":null,"opening_hours":null,"capacity":null,"phone":null,"address":null,"ele":"1239","operator":null,"wikipedia":null,"wikidata":null,"description":null,"wheelchair":null,"osmType":"node","osmId":4172081589,"elevation":"1239","type":"maar"}},{"type":"Feature","geometry":{"type":"Point","coordinates":[2.92678,45.96913]},"properties":{"name":"Puy de Montiroir","country":"France","website":null,"opening_hours":null,"capacity":null,"phone":null,"address":null,"ele":"695","operator":null,"wikipedia":"fr:Puy de Montiroir","wikidata":"Q3411094","description":null,"wheelchair":null,"osmType":"node","osmId":4172085623,"elevation":"695","type":"scoria"}},{"type":"Feature","geometry":{"type":"Point","coordinates":[2.96361,45.9296]},"properties":{"name":"Maar de Rochenoir","country":"France","website":null,"opening_hours":null,"capacity":null,"phone":null,"address":null,"ele":"865","operator":null,"wikipedia":null,"wikidata":null,"description":null,"wheelchair":null,"osmType":"node","osmId":4172087275,"elevation":"865","type":"maar"}},{"type":"Feature","geometry":{"type":"Point","coordinates":[3.06071,45.90914]},"properties":{"name":"Maar de Saint-Hippolyte","country":"France","website":null,"opening_hours":null,"capacity":null,"phone":null,"address":null,"ele":"435","operator":null,"wikipedia":null,"wikidata":null,"description":null,"wheelchair":null,"osmType":"node","osmId":4172087584,"elevation":"435","type":"maar"}},{"type":"Feature","geometry":{"type":"Point","coordinates":[2.95997,45.87292]},"properties":{"name":"Puy de la Goulie","country":"France","website":null,"opening_hours":null,"capacity":null,"phone":null,"address":null,"ele":"944","operator":null,"wikipedia":null,"wikidata":"Q31394846","description":null,"wheelchair":null,"osmType":"node","osmId":4172089453,"elevation":"944","type":"scoria"}},{"type":"Feature","geometry":{"type":"Point","coordinates":[2.95545,45.8703]},"properties":{"name":"Puy de l'Espinasse","country":"France","website":null,"opening_hours":null,"capacity":null,"phone":null,"address":null,"ele":"952","operator":null,"wikipedia":null,"wikidata":"Q31394847","description":null,"wheelchair":null,"osmType":"node","osmId":4172089454,"elevation":"952","type":"scoria"}},{"type":"Feature","geometry":{"type":"Point","coordinates":[2.96299,45.85272]},"properties":{"name":"Bois de Mauzac","country":"France","website":null,"opening_hours":null,"capacity":null,"phone":null,"address":null,"ele":"1055","operator":null,"wikipedia":null,"wikidata":null,"description":null,"wheelchair":null,"osmType":"node","osmId":4172092062,"elevation":"1055","type":"scoria"}},{"type":"Feature","geometry":{"type":"Point","coordinates":[2.9713,45.85303]},"properties":{"name":"Puy de la Ravide","country":"France","website":null,"opening_hours":null,"capacity":null,"phone":null,"address":null,"ele":"1010","operator":null,"wikipedia":null,"wikidata":null,"description":null,"wheelchair":null,"osmType":"node","osmId":4172097482,"elevation":"1010","type":"scoria"}},{"type":"Feature","geometry":{"type":"Point","coordinates":[2.97918,45.85417]},"properties":{"name":"Puy de Bleymas","country":"France","website":null,"opening_hours":null,"capacity":null,"phone":null,"address":null,"ele":"927","operator":null,"wikipedia":null,"wikidata":null,"description":null,"wheelchair":null,"osmType":"node","osmId":4172099213,"elevation":"927","type":"scoria"}},{"type":"Feature","geometry":{"type":"Point","coordinates":[2.97157,45.87612]},"properties":{"name":"Puy des Marais","country":"France","website":null,"opening_hours":null,"capacity":null,"phone":null,"address":null,"ele":"805","operator":null,"wikipedia":null,"wikidata":null,"description":null,"wheelchair":null,"osmType":"node","osmId":4172100692,"elevation":"805","type":"scoria"}},{"type":"Feature","geometry":{"type":"Point","coordinates":[2.95642,45.83452]},"properties":{"name":"Puy de Clermont","country":"France","website":null,"opening_hours":null,"capacity":null,"phone":null,"address":null,"ele":"1070","operator":null,"wikipedia":null,"wikidata":null,"description":null,"wheelchair":null,"osmType":"node","osmId":4172103089,"elevation":"1070","type":"scoria"}},{"type":"Feature","geometry":{"type":"Point","coordinates":[2.96735,45.81881]},"properties":{"name":"Puy de Porcherolles","country":"France","website":null,"opening_hours":null,"capacity":null,"phone":null,"address":null,"ele":"983","operator":null,"wikipedia":null,"wikidata":null,"description":null,"wheelchair":null,"osmType":"node","osmId":4172108389,"elevation":"983","type":"scoria"}},{"type":"Feature","geometry":{"type":"Point","coordinates":[2.96664,45.81212]},"properties":{"name":"Creux Morel","country":"France","website":null,"opening_hours":null,"capacity":null,"phone":null,"address":null,"ele":"945","operator":null,"wikipedia":null,"wikidata":null,"description":null,"wheelchair":null,"osmType":"node","osmId":4172125132,"elevation":"945","type":"maar"}},{"type":"Feature","geometry":{"type":"Point","coordinates":[3.00772,45.79666]},"properties":{"name":"Monchatre","country":"France","website":null,"opening_hours":null,"capacity":null,"phone":null,"address":null,"ele":"895","operator":null,"wikipedia":null,"wikidata":null,"description":null,"wheelchair":null,"osmType":"node","osmId":4172126878,"elevation":"895","type":"maar"}},{"type":"Feature","geometry":{"type":"Point","coordinates":[2.94258,45.78334]},"properties":{"name":"Puy Fillu","country":"France","website":null,"opening_hours":null,"capacity":null,"phone":null,"address":null,"ele":"1078","operator":null,"wikipedia":null,"wikidata":"Q34804561","description":null,"wheelchair":null,"osmType":"node","osmId":4172128055,"elevation":"1078","type":"scoria"}},{"type":"Feature","geometry":{"type":"Point","coordinates":[2.96495,45.77975]},"properties":{"name":"Nid de la Poule","country":"France","website":null,"opening_hours":null,"capacity":null,"phone":null,"address":null,"ele":"1178","operator":null,"wikipedia":null,"wikidata":null,"description":null,"wheelchair":null,"osmType":"node","osmId":4172128457,"elevation":"1178","type":"maar"}},{"type":"Feature","geometry":{"type":"Point","coordinates":[2.98733,45.77614]},"properties":{"name":"Puy de Collière","country":"France","website":null,"opening_hours":null,"capacity":null,"phone":null,"address":null,"ele":"921","operator":null,"wikipedia":null,"wikidata":null,"description":null,"wheelchair":null,"osmType":"node","osmId":4172132405,"elevation":"921","type":"scoria"}},{"type":"Feature","geometry":{"type":"Point","coordinates":[3.02588,45.77149]},"properties":{"name":"Maar de Villars","country":"France","website":null,"opening_hours":null,"capacity":null,"phone":null,"address":null,"ele":"715","operator":null,"wikipedia":null,"wikidata":null,"description":null,"wheelchair":null,"osmType":"node","osmId":4172135089,"elevation":"715","type":"maar"}},{"type":"Feature","geometry":{"type":"Point","coordinates":[2.947,45.76663]},"properties":{"name":"Grand Sault","country":"France","website":null,"opening_hours":null,"capacity":null,"phone":null,"address":null,"ele":"1072","operator":null,"wikipedia":null,"wikidata":"Q31394953","description":null,"wheelchair":null,"osmType":"node","osmId":4172139844,"elevation":"1072","type":"scoria"}},{"type":"Feature","geometry":{"type":"Point","coordinates":[2.94413,45.76885]},"properties":{"name":"Petit Sault","country":"France","website":null,"opening_hours":null,"capacity":null,"phone":null,"address":null,"ele":"1028","operator":null,"wikipedia":null,"wikidata":"Q31394954","description":null,"wheelchair":null,"osmType":"node","osmId":4172139845,"elevation":"1028","type":"scoria"}},{"type":"Feature","geometry":{"type":"Point","coordinates":[2.95626,45.76583]},"properties":{"name":"Puy Lacroix","country":"France","website":null,"opening_hours":null,"capacity":null,"phone":null,"address":null,"ele":"1120","operator":null,"wikipedia":null,"wikidata":null,"description":null,"wheelchair":null,"osmType":"node","osmId":4172143201,"elevation":"1120","type":"scoria"}},{"type":"Feature","geometry":{"type":"Point","coordinates":[2.99018,45.76268]},"properties":{"name":"Maar d'Enval","country":"France","website":null,"opening_hours":null,"capacity":null,"phone":null,"address":null,"ele":"865","operator":null,"wikipedia":null,"wikidata":null,"description":null,"wheelchair":null,"osmType":"node","osmId":4172143223,"elevation":"865","type":"maar"}},{"type":"Feature","geometry":{"type":"Point","coordinates":[2.9494,45.73047]},"properties":{"name":"Puy de Beaune","country":"France","website":null,"opening_hours":null,"capacity":null,"phone":null,"address":null,"ele":"1203","operator":null,"wikipedia":null,"wikidata":"Q31394961","description":null,"wheelchair":null,"osmType":"node","osmId":4172145127,"elevation":"1203","type":"scoria"}},{"type":"Feature","geometry":{"type":"Point","coordinates":[2.95157,45.76012]},"properties":{"name":"Cratère Kilian","country":"France","website":null,"opening_hours":null,"capacity":null,"phone":null,"address":null,"ele":"1005","operator":null,"wikipedia":null,"wikidata":null,"description":null,"wheelchair":null,"osmType":"node","osmId":4172145571,"elevation":"1005","type":"lava_dome"}},{"type":"Feature","geometry":{"type":"Point","coordinates":[2.94844,45.71978]},"properties":{"name":"Puy de Cocuset","country":"France","website":null,"opening_hours":null,"capacity":null,"phone":null,"address":null,"ele":"1094","operator":null,"wikipedia":null,"wikidata":null,"description":null,"wheelchair":null,"osmType":"node","osmId":4172163889,"elevation":"1094","type":"scoria"}},{"type":"Feature","geometry":{"type":"Point","coordinates":[2.94539,45.71335]},"properties":{"name":"Puy de Monteillet","country":"France","website":null,"opening_hours":null,"capacity":null,"phone":null,"address":null,"ele":"1086","operator":null,"wikipedia":null,"wikidata":"Q113111989","description":null,"wheelchair":null,"osmType":"node","osmId":4172166489,"elevation":"1086","type":"scoria"}},{"type":"Feature","geometry":{"type":"Point","coordinates":[2.93258,45.69974]},"properties":{"name":"Puy de Montgy","country":"France","website":null,"opening_hours":null,"capacity":null,"phone":null,"address":null,"ele":"1133","operator":null,"wikipedia":"fr:Puy de Montgy","wikidata":"Q31682172","description":null,"wheelchair":null,"osmType":"node","osmId":4172169466,"elevation":"1133","type":"scoria"}},{"type":"Feature","geometry":{"type":"Point","coordinates":[2.96349,45.71067]},"properties":{"name":"Puy de la Mey","country":"France","website":null,"opening_hours":null,"capacity":null,"phone":null,"address":null,"ele":"1136","operator":null,"wikipedia":"fr:Puy de la Mey","wikidata":"Q97188481","description":null,"wheelchair":null,"osmType":"node","osmId":4172169755,"elevation":"1136","type":"scoria"}},{"type":"Feature","geometry":{"type":"Point","coordinates":[2.95457,45.66626]},"properties":{"name":"Puy Nain","country":"France","website":null,"opening_hours":null,"capacity":null,"phone":null,"address":null,"ele":"1055","operator":null,"wikipedia":null,"wikidata":null,"description":null,"wheelchair":null,"osmType":"node","osmId":4172174889,"elevation":"1055","type":"scoria"}},{"type":"Feature","geometry":{"type":"Point","coordinates":[2.93031,45.66555]},"properties":{"name":"Narse d'Ampoix","country":"France","website":null,"opening_hours":null,"capacity":null,"phone":null,"address":null,"ele":"1015","operator":null,"wikipedia":null,"wikidata":null,"description":null,"wheelchair":null,"osmType":"node","osmId":4172174993,"elevation":"1015","type":"maar"}},{"type":"Feature","geometry":{"type":"Point","coordinates":[2.82891,45.86426]},"properties":{"name":"Puy de Pranal","country":"France","website":null,"opening_hours":null,"capacity":null,"phone":null,"address":null,"ele":"675","operator":null,"wikipedia":null,"wikidata":null,"description":null,"wheelchair":null,"osmType":"node","osmId":4172179024,"elevation":"675","type":"scoria"}},{"type":"Feature","geometry":{"type":"Point","coordinates":[2.78305,45.78894]},"properties":{"name":"Puy de la Vialle","country":"France","website":null,"opening_hours":null,"capacity":null,"phone":null,"address":null,"ele":"955","operator":null,"wikipedia":null,"wikidata":null,"description":null,"wheelchair":null,"osmType":"node","osmId":4172184050,"elevation":"955","type":"scoria"}},{"type":"Feature","geometry":{"type":"Point","coordinates":[2.78536,45.79615]},"properties":{"name":"Puy de Neuffont","country":"France","website":null,"opening_hours":null,"capacity":null,"phone":null,"address":null,"ele":"955","operator":null,"wikipedia":null,"wikidata":null,"description":null,"wheelchair":null,"osmType":"node","osmId":4172184289,"elevation":"955","type":"scoria"}},{"type":"Feature","geometry":{"type":"Point","coordinates":[2.81744,45.68703]},"properties":{"name":"Puy d'Ebert","country":"France","website":null,"opening_hours":null,"capacity":null,"phone":null,"address":null,"ele":"1050","operator":null,"wikipedia":null,"wikidata":null,"description":null,"wheelchair":null,"osmType":"node","osmId":4172184290,"elevation":"1050","type":"scoria"}},{"type":"Feature","geometry":{"type":"Point","coordinates":[2.7805,45.74951]},"properties":{"name":"Puy de Banson","country":"France","website":null,"opening_hours":null,"capacity":null,"phone":null,"address":null,"ele":"1035","operator":null,"wikipedia":null,"wikidata":null,"description":null,"wheelchair":null,"osmType":"node","osmId":4172185127,"elevation":"1035","type":"scoria"}},{"type":"Feature","geometry":{"type":"Point","coordinates":[2.82948,45.69686]},"properties":{"name":"Puy de Saint-Martin","country":"France","website":null,"opening_hours":null,"capacity":null,"phone":null,"address":null,"ele":"915","operator":null,"wikipedia":null,"wikidata":null,"description":null,"wheelchair":null,"osmType":"node","osmId":4172188186,"elevation":"915","type":"scoria"}},{"type":"Feature","geometry":{"type":"Point","coordinates":[2.78322,45.65797]},"properties":{"name":"Vivanson","country":"France","website":null,"opening_hours":null,"capacity":null,"phone":null,"address":null,"ele":"1085","operator":null,"wikipedia":null,"wikidata":null,"description":null,"wheelchair":null,"osmType":"node","osmId":4172190511,"elevation":"1085","type":"scoria"}},{"type":"Feature","geometry":{"type":"Point","coordinates":[2.90145,45.49221]},"properties":{"name":"Lac Estivadoux","country":"France","website":null,"opening_hours":null,"capacity":null,"phone":null,"address":null,"ele":"1254","operator":null,"wikipedia":null,"wikidata":null,"description":null,"wheelchair":null,"osmType":"node","osmId":4172192698,"elevation":"1254","type":"maar"}},{"type":"Feature","geometry":{"type":"Point","coordinates":[2.88852,45.43339]},"properties":{"name":"Puy de la Vaisse","country":"France","website":null,"opening_hours":null,"capacity":null,"phone":null,"address":null,"ele":"1359","operator":null,"wikipedia":null,"wikidata":null,"description":null,"wheelchair":null,"osmType":"node","osmId":4172195889,"elevation":"1359","type":"scoria"}},{"type":"Feature","geometry":{"type":"Point","coordinates":[2.96645,45.89549]},"properties":{"name":"Puy Guettard","country":"France","website":null,"opening_hours":null,"capacity":null,"phone":null,"address":null,"ele":"810","operator":null,"wikipedia":null,"wikidata":null,"description":null,"wheelchair":null,"osmType":"node","osmId":4172199455,"elevation":"810","type":"scoria"}},{"type":"Feature","geometry":{"type":"Point","coordinates":[2.90453,45.83481]},"properties":{"name":"Maar de Beauloup","country":"France","website":null,"opening_hours":null,"capacity":null,"phone":null,"address":null,"ele":"820","operator":null,"wikipedia":null,"wikidata":null,"description":null,"wheelchair":null,"osmType":"node","osmId":4172200220,"elevation":"820","type":"maar"}},{"type":"Feature","geometry":{"type":"Point","coordinates":[2.96122,45.8991]},"properties":{"name":"Suc des Filles","country":"France","website":null,"opening_hours":null,"capacity":null,"phone":null,"address":null,"ele":"810","operator":null,"wikipedia":null,"wikidata":null,"description":null,"wheelchair":null,"osmType":"node","osmId":4172200631,"elevation":"810","type":"scoria"}},{"type":"Feature","geometry":{"type":"Point","coordinates":[2.77254,45.52718]},"properties":{"name":"Roc de Courlande","country":"France","website":null,"opening_hours":null,"capacity":null,"phone":null,"address":null,"ele":"1496","operator":null,"wikipedia":null,"wikidata":null,"description":null,"wheelchair":null,"osmType":"node","osmId":4193775831,"elevation":"1496"}},{"type":"Feature","geometry":{"type":"Point","coordinates":[3.96261,45.17908]},"properties":{"name":"Suc d'Échacouse","country":"France","website":null,"opening_hours":null,"capacity":null,"phone":null,"address":null,"ele":"970","operator":null,"wikipedia":null,"wikidata":null,"description":null,"wheelchair":null,"osmType":"node","osmId":4254265904,"elevation":"970"}},{"type":"Feature","geometry":{"type":"Point","coordinates":[4.07448,45.69596]},"properties":{"name":"Mont d'Uzore","country":"France","website":null,"opening_hours":null,"capacity":null,"phone":null,"address":null,"ele":"532","operator":null,"wikipedia":null,"wikidata":null,"description":null,"wheelchair":null,"osmType":"node","osmId":4291187594,"elevation":"532"}},{"type":"Feature","geometry":{"type":"Point","coordinates":[4.06659,45.71781]},"properties":{"name":"Le Pic","country":"France","website":null,"opening_hours":null,"capacity":null,"phone":null,"address":null,"ele":"415","operator":null,"wikipedia":null,"wikidata":null,"description":null,"wheelchair":null,"osmType":"node","osmId":4291205692,"elevation":"415"}},{"type":"Feature","geometry":{"type":"Point","coordinates":[2.9067,45.50027]},"properties":{"name":"Puy de Pertuyzat","country":"France","website":null,"opening_hours":null,"capacity":null,"phone":null,"address":null,"ele":"1304","operator":null,"wikipedia":null,"wikidata":null,"description":null,"wheelchair":null,"osmType":"node","osmId":4491076169,"elevation":"1304"}},{"type":"Feature","geometry":{"type":"Point","coordinates":[3.57492,45.10214]},"properties":{"name":"Mont Briançon","country":"France","website":null,"opening_hours":null,"capacity":null,"phone":null,"address":null,"ele":"1045","operator":null,"wikipedia":"fr:Mont Briançon","wikidata":"Q32131205","description":"1045m\n43300 Saint-Arcons-d'Allier","wheelchair":null,"osmType":"node","osmId":4583931593,"elevation":"1045","type":"scoria"}},{"type":"Feature","geometry":{"type":"Point","coordinates":[2.92552,44.66562]},"properties":{"name":"Puech du Roussillon","country":"France","website":null,"opening_hours":null,"capacity":null,"phone":null,"address":null,"ele":"1404","operator":null,"wikipedia":null,"wikidata":null,"description":null,"wheelchair":null,"osmType":"node","osmId":4601529607,"elevation":"1404"}},{"type":"Feature","geometry":{"type":"Point","coordinates":[3.26611,43.63574]},"properties":{"name":"Le Castelas","country":"France","website":null,"opening_hours":null,"capacity":null,"phone":null,"address":null,"ele":"373","operator":null,"wikipedia":null,"wikidata":null,"description":null,"wheelchair":null,"osmType":"node","osmId":4929241100,"elevation":"373"}},{"type":"Feature","geometry":{"type":"Point","coordinates":[3.18171,45.66083]},"properties":{"name":"Puy de Corent","country":"France","website":null,"opening_hours":null,"capacity":null,"phone":null,"address":null,"ele":"621","operator":null,"wikipedia":null,"wikidata":null,"description":null,"wheelchair":null,"osmType":"node","osmId":4988474834,"elevation":"621"}},{"type":"Feature","geometry":{"type":"Point","coordinates":[3.1076,45.62738]},"properties":{"name":"Puy de Saint-Sandoux","country":"France","website":null,"opening_hours":null,"capacity":null,"phone":null,"address":null,"ele":"848","operator":null,"wikipedia":null,"wikidata":null,"description":null,"wheelchair":null,"osmType":"node","osmId":4988508082,"elevation":"848"}},{"type":"Feature","geometry":{"type":"Point","coordinates":[3.2902,45.63508]},"properties":{"name":"Puy des Gardelles","country":"France","website":null,"opening_hours":null,"capacity":null,"phone":null,"address":null,"ele":"750","operator":null,"wikipedia":null,"wikidata":null,"description":null,"wheelchair":null,"osmType":"node","osmId":5030540938,"elevation":"750"}},{"type":"Feature","geometry":{"type":"Point","coordinates":[3.27235,45.62582]},"properties":{"name":"Puy Saint-Hippolyte","country":"France","website":null,"opening_hours":null,"capacity":null,"phone":null,"address":null,"ele":"780","operator":null,"wikipedia":null,"wikidata":null,"description":null,"wheelchair":null,"osmType":"node","osmId":5030541231,"elevation":"780"}},{"type":"Feature","geometry":{"type":"Point","coordinates":[3.31206,45.61946]},"properties":{"name":"Puy de Rayat","country":"France","website":null,"opening_hours":null,"capacity":null,"phone":null,"address":null,"ele":"691","operator":null,"wikipedia":null,"wikidata":null,"description":null,"wheelchair":null,"osmType":"node","osmId":5031757966,"elevation":"691"}},{"type":"Feature","geometry":{"type":"Point","coordinates":[3.31034,45.61061]},"properties":{"name":"Le Grand Raymond","country":"France","website":null,"opening_hours":null,"capacity":null,"phone":null,"address":null,"ele":"750","operator":null,"wikipedia":null,"wikidata":null,"description":null,"wheelchair":null,"osmType":"node","osmId":5031758226,"elevation":"750"}},{"type":"Feature","geometry":{"type":"Point","coordinates":[3.29327,45.64793]},"properties":{"name":"Pic de Dimond","country":"France","website":null,"opening_hours":null,"capacity":null,"phone":null,"address":null,"ele":"730","operator":null,"wikipedia":null,"wikidata":null,"description":null,"wheelchair":null,"osmType":"node","osmId":5034018989,"elevation":"730"}},{"type":"Feature","geometry":{"type":"Point","coordinates":[3.31444,45.63927]},"properties":{"name":"Pic des Fleurides","country":"France","website":null,"opening_hours":null,"capacity":null,"phone":null,"address":null,"ele":"673","operator":null,"wikipedia":null,"wikidata":null,"description":null,"wheelchair":null,"osmType":"node","osmId":5034307706,"elevation":"673"}},{"type":"Feature","geometry":{"type":"Point","coordinates":[3.2834,45.66515]},"properties":{"name":"Puy de Serpanoux","country":"France","website":null,"opening_hours":null,"capacity":null,"phone":null,"address":null,"ele":"718","operator":null,"wikipedia":null,"wikidata":null,"description":null,"wheelchair":null,"osmType":"node","osmId":5034307713,"elevation":"718"}},{"type":"Feature","geometry":{"type":"Point","coordinates":[3.30008,45.66378]},"properties":{"name":"Pic de Mercurol","country":"France","website":null,"opening_hours":null,"capacity":null,"phone":null,"address":null,"ele":"713","operator":null,"wikipedia":null,"wikidata":null,"description":null,"wheelchair":null,"osmType":"node","osmId":5034307714,"elevation":"713"}},{"type":"Feature","geometry":{"type":"Point","coordinates":[3.30581,45.6313]},"properties":{"name":"Pic de Garagnon","country":"France","website":null,"opening_hours":null,"capacity":null,"phone":null,"address":null,"ele":"691","operator":null,"wikipedia":null,"wikidata":null,"description":null,"wheelchair":null,"osmType":"node","osmId":5034308147,"elevation":"691"}},{"type":"Feature","geometry":{"type":"Point","coordinates":[3.29398,45.65465]},"properties":{"name":"Puy de Champerogne","country":"France","website":null,"opening_hours":null,"capacity":null,"phone":null,"address":null,"ele":"769","operator":null,"wikipedia":null,"wikidata":null,"description":null,"wheelchair":null,"osmType":"node","osmId":5034308162,"elevation":"769"}},{"type":"Feature","geometry":{"type":"Point","coordinates":[3.31526,45.65342]},"properties":{"name":"Pic de Vindoux","country":"France","website":null,"opening_hours":null,"capacity":null,"phone":null,"address":null,"ele":"744","operator":null,"wikipedia":null,"wikidata":null,"description":null,"wheelchair":null,"osmType":"node","osmId":5034308163,"elevation":"744"}},{"type":"Feature","geometry":{"type":"Point","coordinates":[3.30388,45.6506]},"properties":{"name":"Pic de Cheix Blanc","country":"France","website":null,"opening_hours":null,"capacity":null,"phone":null,"address":null,"ele":"815","operator":null,"wikipedia":null,"wikidata":null,"description":null,"wheelchair":null,"osmType":"node","osmId":5034308164,"elevation":"815"}},{"type":"Feature","geometry":{"type":"Point","coordinates":[3.31525,45.61277]},"properties":{"name":"Le Petit Raymond","country":"France","website":null,"opening_hours":null,"capacity":null,"phone":null,"address":null,"ele":"701","operator":null,"wikipedia":null,"wikidata":null,"description":null,"wheelchair":null,"osmType":"node","osmId":5037596114,"elevation":"701"}},{"type":"Feature","geometry":{"type":"Point","coordinates":[2.75596,45.56998]},"properties":{"name":"La Roche Vendeix","country":"France","website":null,"opening_hours":null,"capacity":null,"phone":null,"address":null,"ele":"1160","operator":null,"wikipedia":null,"wikidata":null,"description":null,"wheelchair":null,"osmType":"node","osmId":5075406492,"elevation":"1160"}},{"type":"Feature","geometry":{"type":"Point","coordinates":[2.67275,45.13437]},"properties":{"name":"Suc de la Blatte","country":"France","website":null,"opening_hours":null,"capacity":null,"phone":null,"address":null,"ele":"1562","operator":null,"wikipedia":null,"wikidata":"Q31670474","description":null,"wheelchair":null,"osmType":"node","osmId":5517837097,"elevation":"1562"}},{"type":"Feature","geometry":{"type":"Point","coordinates":[2.98684,45.33397]},"properties":{"name":"Signal du Luguet","country":"France","website":null,"opening_hours":null,"capacity":null,"phone":null,"address":null,"ele":"1551","operator":null,"wikipedia":null,"wikidata":"Q3483602","description":null,"wheelchair":null,"osmType":"node","osmId":5825513042,"elevation":"1551"}},{"type":"Feature","geometry":{"type":"Point","coordinates":[3.36447,45.61568]},"properties":{"name":"Puy d'Auger","country":"France","website":null,"opening_hours":null,"capacity":null,"phone":null,"address":null,"ele":"635","operator":null,"wikipedia":null,"wikidata":null,"description":null,"wheelchair":null,"osmType":"node","osmId":6031510734,"elevation":"635"}},{"type":"Feature","geometry":{"type":"Point","coordinates":[3.26124,45.60211]},"properties":{"name":"Puy Moriot","country":"France","website":null,"opening_hours":null,"capacity":null,"phone":null,"address":null,"ele":"701","operator":null,"wikipedia":null,"wikidata":null,"description":null,"wheelchair":null,"osmType":"node","osmId":6165698880,"elevation":"701"}},{"type":"Feature","geometry":{"type":"Point","coordinates":[3.23472,45.63014]},"properties":{"name":"Puy d'Ecouyat","country":"France","website":null,"opening_hours":null,"capacity":null,"phone":null,"address":null,"ele":"653","operator":null,"wikipedia":null,"wikidata":null,"description":null,"wheelchair":null,"osmType":"node","osmId":6167030911,"elevation":"653"}},{"type":"Feature","geometry":{"type":"Point","coordinates":[3.35731,43.74225]},"properties":{"name":"Serre Bau","country":"France","website":null,"opening_hours":null,"capacity":null,"phone":null,"address":null,"ele":"547","operator":null,"wikipedia":null,"wikidata":null,"description":null,"wheelchair":null,"osmType":"node","osmId":6184990186,"elevation":"547"}},{"type":"Feature","geometry":{"type":"Point","coordinates":[3.35289,43.73791]},"properties":{"name":"Le Brandou","country":"France","website":null,"opening_hours":null,"capacity":null,"phone":null,"address":null,"ele":"532","operator":null,"wikipedia":null,"wikidata":null,"description":null,"wheelchair":null,"osmType":"node","osmId":6184990187,"elevation":"532"}},{"type":"Feature","geometry":{"type":"Point","coordinates":[2.79384,45.03557]},"properties":{"name":"Puy de la Belle-Viste","country":"France","website":null,"opening_hours":null,"capacity":null,"phone":null,"address":null,"ele":"1555","operator":null,"wikipedia":null,"wikidata":"Q31672261","description":null,"wheelchair":null,"osmType":"node","osmId":6262787010,"elevation":"1555"}},{"type":"Feature","geometry":{"type":"Point","coordinates":[4.12587,45.55736]},"properties":{"name":"Pic de Saint-Romain","country":"France","website":null,"opening_hours":null,"capacity":null,"phone":null,"address":null,"ele":"398","operator":null,"wikipedia":null,"wikidata":"Q31394590","description":null,"wheelchair":null,"osmType":"node","osmId":6314243147,"elevation":"398"}},{"type":"Feature","geometry":{"type":"Point","coordinates":[2.88532,45.48725]},"properties":{"name":null,"country":"France","website":null,"opening_hours":null,"capacity":null,"phone":null,"address":null,"ele":null,"operator":null,"wikipedia":null,"wikidata":null,"description":null,"wheelchair":null,"osmType":"node","osmId":6350491514}},{"type":"Feature","geometry":{"type":"Point","coordinates":[4.01162,45.65202]},"properties":{"name":"Pic de Griot","country":"France","website":null,"opening_hours":null,"capacity":null,"phone":null,"address":null,"ele":"669","operator":null,"wikipedia":null,"wikidata":null,"description":null,"wheelchair":null,"osmType":"node","osmId":6434411662,"elevation":"669"}},{"type":"Feature","geometry":{"type":"Point","coordinates":[4.09412,44.91582]},"properties":{"name":"Roche du Bachat","country":"France","website":null,"opening_hours":null,"capacity":null,"phone":null,"address":"43150","ele":"1423","operator":null,"wikipedia":null,"wikidata":null,"description":null,"wheelchair":null,"osmType":"node","osmId":6479974406,"elevation":"1423"}},{"type":"Feature","geometry":{"type":"Point","coordinates":[2.68921,44.50472]},"properties":{"name":"Puech de Vèbre","country":"France","website":null,"opening_hours":null,"capacity":null,"phone":null,"address":null,"ele":"632","operator":null,"wikipedia":null,"wikidata":null,"description":"Miocène : Point d'émission de lave basaltique","wheelchair":null,"osmType":"node","osmId":6630853655,"elevation":"632"}},{"type":"Feature","geometry":{"type":"Point","coordinates":[2.8154,45.08485]},"properties":{"name":"Puy de la Molède","country":"France","website":null,"opening_hours":null,"capacity":null,"phone":null,"address":null,"ele":"1384","operator":null,"wikipedia":null,"wikidata":null,"description":null,"wheelchair":null,"osmType":"node","osmId":6631931043,"elevation":"1384"}},{"type":"Feature","geometry":{"type":"Point","coordinates":[2.75541,45.54932]},"properties":{"name":"Puy de Chambourguet","country":"France","website":null,"opening_hours":null,"capacity":null,"phone":null,"address":null,"ele":"1375","operator":null,"wikipedia":null,"wikidata":null,"description":null,"wheelchair":null,"osmType":"node","osmId":6698090205,"elevation":"1375"}},{"type":"Feature","geometry":{"type":"Point","coordinates":[2.8685,45.46544]},"properties":{"name":"Le Cocudoux","country":"France","website":null,"opening_hours":null,"capacity":null,"phone":null,"address":null,"ele":"1342","operator":null,"wikipedia":null,"wikidata":null,"description":null,"wheelchair":null,"osmType":"node","osmId":6700192776,"elevation":"1342"}},{"type":"Feature","geometry":{"type":"Point","coordinates":[2.85668,45.55093]},"properties":{"name":"Puy Jumel","country":"France","website":null,"opening_hours":null,"capacity":null,"phone":null,"address":null,"ele":"1430","operator":null,"wikipedia":null,"wikidata":null,"description":null,"wheelchair":null,"osmType":"node","osmId":6701020344,"elevation":"1430"}},{"type":"Feature","geometry":{"type":"Point","coordinates":[3.04972,45.75201]},"properties":{"name":"Puy de Gravenoire","country":"France","website":null,"opening_hours":null,"capacity":null,"phone":null,"address":null,"ele":"822","operator":null,"wikipedia":"fr:Puy de Gravenoire","wikidata":"Q3411089","description":null,"wheelchair":null,"osmType":"node","osmId":6731753140,"elevation":"822","type":"scoria"}},{"type":"Feature","geometry":{"type":"Point","coordinates":[2.78029,45.04051]},"properties":{"name":"Puy Gerbel","country":"France","website":null,"opening_hours":null,"capacity":null,"phone":null,"address":null,"ele":"1640","operator":null,"wikipedia":null,"wikidata":"Q31672277","description":null,"wheelchair":null,"osmType":"node","osmId":6754228968,"elevation":"1640"}},{"type":"Feature","geometry":{"type":"Point","coordinates":[2.84878,45.52549]},"properties":{"name":"Puy de Champgourdeix","country":"France","website":null,"opening_hours":null,"capacity":null,"phone":null,"address":null,"ele":"1570","operator":null,"wikipedia":null,"wikidata":null,"description":null,"wheelchair":null,"osmType":"node","osmId":6754229297,"elevation":"1570"}},{"type":"Feature","geometry":{"type":"Point","coordinates":[2.83185,45.54031]},"properties":{"name":"Puy des Crebasses","country":"France","website":null,"opening_hours":null,"capacity":null,"phone":null,"address":null,"ele":"1762","operator":null,"wikipedia":null,"wikidata":null,"description":null,"wheelchair":null,"osmType":"node","osmId":6754229365,"elevation":"1762"}},{"type":"Feature","geometry":{"type":"Point","coordinates":[2.82895,45.56923]},"properties":{"name":"Puy de Mareilh","country":"France","website":null,"opening_hours":null,"capacity":null,"phone":null,"address":null,"ele":"1566","operator":null,"wikipedia":null,"wikidata":null,"description":null,"wheelchair":null,"osmType":"node","osmId":6754318842,"elevation":"1566"}},{"type":"Feature","geometry":{"type":"Point","coordinates":[2.85389,45.57702]},"properties":{"name":"Puy de Surains","country":"France","website":null,"opening_hours":null,"capacity":null,"phone":null,"address":null,"ele":"1542","operator":null,"wikipedia":null,"wikidata":"Q31676177","description":null,"wheelchair":null,"osmType":"node","osmId":6754318868,"elevation":"1542"}},{"type":"Feature","geometry":{"type":"Point","coordinates":[2.86432,45.58742]},"properties":{"name":"Puy Pouge","country":"France","website":null,"opening_hours":null,"capacity":null,"phone":null,"address":null,"ele":"1330","operator":null,"wikipedia":null,"wikidata":"Q31676194","description":null,"wheelchair":null,"osmType":"node","osmId":6754327027,"elevation":"1330"}},{"type":"Feature","geometry":{"type":"Point","coordinates":[2.86795,45.59335]},"properties":{"name":"Puy Chambon","country":"France","website":null,"opening_hours":null,"capacity":null,"phone":null,"address":null,"ele":"1464","operator":null,"wikipedia":null,"wikidata":null,"description":null,"wheelchair":null,"osmType":"node","osmId":6754327028,"elevation":"1464"}},{"type":"Feature","geometry":{"type":"Point","coordinates":[2.77721,45.64056]},"properties":{"name":"Puy Vivanson","country":"France","website":null,"opening_hours":null,"capacity":null,"phone":null,"address":null,"ele":null,"operator":null,"wikipedia":null,"wikidata":null,"description":null,"wheelchair":null,"osmType":"node","osmId":6841956057}},{"type":"Feature","geometry":{"type":"Point","coordinates":[2.79691,45.61134]},"properties":{"name":"Puy May","country":"France","website":null,"opening_hours":null,"capacity":null,"phone":null,"address":null,"ele":"1406","operator":null,"wikipedia":null,"wikidata":"Q31676210","description":null,"wheelchair":null,"osmType":"node","osmId":6964787168,"elevation":"1406"}},{"type":"Feature","geometry":{"type":"Point","coordinates":[2.80531,45.64066]},"properties":{"name":"Puy de Cros","country":"France","website":null,"opening_hours":null,"capacity":null,"phone":null,"address":null,"ele":"1152","operator":null,"wikipedia":null,"wikidata":null,"description":null,"wheelchair":null,"osmType":"node","osmId":6966105883,"elevation":"1152"}},{"type":"Feature","geometry":{"type":"Point","coordinates":[2.82606,45.64163]},"properties":{"name":"Puy Mandon","country":"France","website":null,"opening_hours":null,"capacity":null,"phone":null,"address":null,"ele":"1251","operator":null,"wikipedia":null,"wikidata":null,"description":null,"wheelchair":null,"osmType":"node","osmId":6966121013,"elevation":"1251"}},{"type":"Feature","geometry":{"type":"Point","coordinates":[2.86065,45.65066]},"properties":{"name":"Puy d'Augère","country":"France","website":null,"opening_hours":null,"capacity":null,"phone":null,"address":null,"ele":"1243","operator":null,"wikipedia":null,"wikidata":null,"description":null,"wheelchair":null,"osmType":"node","osmId":6966121020,"elevation":"1243"}},{"type":"Feature","geometry":{"type":"Point","coordinates":[2.80433,45.6253]},"properties":{"name":"Roche Malvialle","country":"France","website":null,"opening_hours":null,"capacity":null,"phone":null,"address":null,"ele":"1375","operator":null,"wikipedia":null,"wikidata":null,"description":null,"wheelchair":null,"osmType":"node","osmId":6966121067,"elevation":"1375"}},{"type":"Feature","geometry":{"type":"Point","coordinates":[2.84103,45.61094]},"properties":{"name":"Le Trioulérou","country":"France","website":null,"opening_hours":null,"capacity":null,"phone":null,"address":null,"ele":"1395","operator":null,"wikipedia":null,"wikidata":null,"description":null,"wheelchair":null,"osmType":"node","osmId":6966385001,"elevation":"1395"}},{"type":"Feature","geometry":{"type":"Point","coordinates":[2.80559,45.60394]},"properties":{"name":"Chantauzet","country":"France","website":null,"opening_hours":null,"capacity":null,"phone":null,"address":null,"ele":"1385","operator":null,"wikipedia":null,"wikidata":null,"description":null,"wheelchair":null,"osmType":"node","osmId":6966385210,"elevation":"1385"}},{"type":"Feature","geometry":{"type":"Point","coordinates":[2.7795,45.6069]},"properties":{"name":"Le Tenon","country":"France","website":null,"opening_hours":null,"capacity":null,"phone":null,"address":null,"ele":"1416","operator":null,"wikipedia":null,"wikidata":null,"description":null,"wheelchair":null,"osmType":"node","osmId":6966385224,"elevation":"1416"}},{"type":"Feature","geometry":{"type":"Point","coordinates":[2.83171,45.48995]},"properties":{"name":"Baubet","country":"France","website":null,"opening_hours":null,"capacity":null,"phone":null,"address":null,"ele":"1340","operator":null,"wikipedia":null,"wikidata":null,"description":null,"wheelchair":null,"osmType":"node","osmId":6979385339,"elevation":"1340"}},{"type":"Feature","geometry":{"type":"Point","coordinates":[4.08493,45.49056]},"properties":{"name":"Coulée basaltique de Chenereilles","country":"France","website":null,"opening_hours":null,"capacity":null,"phone":null,"address":null,"ele":null,"operator":null,"wikipedia":null,"wikidata":null,"description":null,"wheelchair":null,"osmType":"node","osmId":7052465937}},{"type":"Feature","geometry":{"type":"Point","coordinates":[2.94419,45.90437]},"properties":{"name":"Suc de Villeneuve","country":"France","website":null,"opening_hours":null,"capacity":null,"phone":null,"address":null,"ele":null,"operator":null,"wikipedia":null,"wikidata":null,"description":null,"wheelchair":null,"osmType":"node","osmId":7061578881}},{"type":"Feature","geometry":{"type":"Point","coordinates":[3.20744,43.61303]},"properties":{"name":"Le Courbezou","country":"France","website":null,"opening_hours":null,"capacity":null,"phone":null,"address":null,"ele":"486","operator":null,"wikipedia":null,"wikidata":null,"description":null,"wheelchair":null,"osmType":"node","osmId":7208060150,"elevation":"486"}},{"type":"Feature","geometry":{"type":"Point","coordinates":[4.25775,44.66405]},"properties":{"name":"Le Souilhol","country":"France","website":null,"opening_hours":null,"capacity":null,"phone":null,"address":null,"ele":"665","operator":null,"wikipedia":null,"wikidata":null,"description":null,"wheelchair":null,"osmType":"node","osmId":7223163072,"elevation":"665","type":"strombolian"}},{"type":"Feature","geometry":{"type":"Point","coordinates":[3.40054,45.64764]},"properties":{"name":"Courdeloup","country":"France","website":null,"opening_hours":null,"capacity":null,"phone":null,"address":null,"ele":"789","operator":null,"wikipedia":null,"wikidata":null,"description":null,"wheelchair":null,"osmType":"node","osmId":7344149835,"elevation":"789"}},{"type":"Feature","geometry":{"type":"Point","coordinates":[2.44757,45.41559]},"properties":{"name":"Le Bostioux","country":"France","website":null,"opening_hours":null,"capacity":null,"phone":null,"address":null,"ele":"699","operator":null,"wikipedia":null,"wikidata":null,"description":null,"wheelchair":null,"osmType":"node","osmId":7541312452,"elevation":"699"}},{"type":"Feature","geometry":{"type":"Point","coordinates":[3.13548,46.01907]},"properties":{"name":"Puy Merle","country":"France","website":null,"opening_hours":null,"capacity":null,"phone":null,"address":null,"ele":"518","operator":null,"wikipedia":null,"wikidata":null,"description":null,"wheelchair":null,"osmType":"node","osmId":7597706097,"elevation":"518"}},{"type":"Feature","geometry":{"type":"Point","coordinates":[2.37674,45.37556]},"properties":{"name":"Puy de Lacollange","country":"France","website":null,"opening_hours":null,"capacity":null,"phone":null,"address":null,"ele":"698","operator":null,"wikipedia":null,"wikidata":null,"description":null,"wheelchair":null,"osmType":"node","osmId":7710396469,"elevation":"698"}},{"type":"Feature","geometry":{"type":"Point","coordinates":[3.91415,45.47229]},"properties":{"name":"Volcan du Montpeloux","country":"France","website":null,"opening_hours":null,"capacity":null,"phone":null,"address":null,"ele":null,"operator":null,"wikipedia":null,"wikidata":null,"description":null,"wheelchair":null,"osmType":"node","osmId":7745292595}},{"type":"Feature","geometry":{"type":"Point","coordinates":[4.00281,45.7183]},"properties":{"name":"Le volcan de Montaubourg","country":"France","website":null,"opening_hours":null,"capacity":null,"phone":null,"address":null,"ele":"594","operator":null,"wikipedia":null,"wikidata":null,"description":null,"wheelchair":null,"osmType":"node","osmId":7753599447,"elevation":"594"}},{"type":"Feature","geometry":{"type":"Point","coordinates":[4.03924,45.65109]},"properties":{"name":"Piton basaltique de Purchon","country":"France","website":null,"opening_hours":null,"capacity":null,"phone":null,"address":null,"ele":"515","operator":null,"wikipedia":null,"wikidata":null,"description":null,"wheelchair":null,"osmType":"node","osmId":7753599448,"elevation":"515"}},