{"type":"FeatureCollection","features":[{"type":"Feature","geometry":{"type":"Point","coordinates":[140.80674,42.82696]},"properties":{"name":"羊蹄山","country":"Japan","website":null,"opening_hours":null,"capacity":null,"phone":null,"osmType":"node","osmId":204683948,"elevation":"1898","type":"stratovolcano"}},{"type":"Feature","geometry":{"type":"Point","coordinates":[140.67724,42.06327]},"properties":{"name":"駒ヶ岳","country":"Japan","website":null,"opening_hours":null,"capacity":null,"phone":null,"osmType":"node","osmId":263099699,"elevation":"1131"}},{"type":"Feature","geometry":{"type":"Point","coordinates":[140.68855,42.07453]},"properties":{"name":"砂原岳","country":"Japan","website":null,"opening_hours":null,"capacity":null,"phone":null,"osmType":"node","osmId":263099901}},{"type":"Feature","geometry":{"type":"Point","coordinates":[145.73268,43.97935]},"properties":{"name":"Менделеева","country":"Japan","website":null,"opening_hours":null,"capacity":null,"phone":null,"osmType":"node","osmId":281895627,"elevation":"888","type":"stratovolcano"}},{"type":"Feature","geometry":{"type":"Point","coordinates":[146.25308,44.35371]},"properties":{"name":"Тятя","country":"Japan","website":null,"opening_hours":null,"capacity":null,"phone":null,"osmType":"node","osmId":281896663,"elevation":"1819","type":"stratovolcano"}},{"type":"Feature","geometry":{"type":"Point","coordinates":[145.49579,43.8484]},"properties":{"name":"вулкан Головнина","country":"Japan","website":null,"opening_hours":null,"capacity":null,"phone":null,"osmType":"node","osmId":281897347,"elevation":"543"}},{"type":"Feature","geometry":{"type":"Point","coordinates":[140.26085,37.72201]},"properties":{"name":"吾妻小富士","country":"Japan","website":null,"opening_hours":null,"capacity":null,"phone":null,"osmType":"node","osmId":287268918}},{"type":"Feature","geometry":{"type":"Point","coordinates":[140.07224,37.60098]},"properties":{"name":"磐梯山","country":"Japan","website":null,"opening_hours":null,"capacity":null,"phone":null,"osmType":"node","osmId":314604715,"elevation":"1816.2"}},{"type":"Feature","geometry":{"type":"Point","coordinates":[140.68589,42.06582]},"properties":{"name":null,"country":"Japan","website":null,"opening_hours":null,"capacity":null,"phone":null,"osmType":"node","osmId":491318939}},{"type":"Feature","geometry":{"type":"Point","coordinates":[138.73077,35.36284]},"properties":{"name":"富士山","country":"Japan","website":null,"opening_hours":null,"capacity":null,"phone":null,"osmType":"node","osmId":714354378,"elevation":"3776.2","type":"stratovolcano"}},{"type":"Feature","geometry":{"type":"Point","coordinates":[138.87824,36.47693]},"properties":{"name":"榛名山","country":"Japan","website":null,"opening_hours":null,"capacity":null,"phone":null,"osmType":"node","osmId":742671354,"elevation":"1391"}},{"type":"Feature","geometry":{"type":"Point","coordinates":[142.85411,43.66359]},"properties":{"name":"旭岳","country":"Japan","website":null,"opening_hours":null,"capacity":null,"phone":null,"osmType":"node","osmId":811793558,"elevation":"2290.9"}},{"type":"Feature","geometry":{"type":"Point","coordinates":[141.37664,42.69055]},"properties":{"name":"樽前山","country":"Japan","website":null,"opening_hours":null,"capacity":null,"phone":null,"osmType":"node","osmId":829818724,"elevation":"1041"}},{"type":"Feature","geometry":{"type":"Point","coordinates":[131.09474,32.8827]},"properties":{"name":"阿蘇山","country":"Japan","website":null,"opening_hours":null,"capacity":null,"phone":null,"osmType":"node","osmId":917987193,"elevation":"1592"}},{"type":"Feature","geometry":{"type":"Point","coordinates":[130.65798,31.58057]},"properties":{"name":"桜島","country":"Japan","website":null,"opening_hours":null,"capacity":null,"phone":null,"osmType":"node","osmId":1280125814,"elevation":"1117","type":"stratovolcano"}},{"type":"Feature","geometry":{"type":"Point","coordinates":[130.69935,31.65147]},"properties":{"name":"姶良カルデラ","country":"Japan","website":null,"opening_hours":null,"capacity":null,"phone":null,"osmType":"node","osmId":1280126650,"type":"supervolcano"}},{"type":"Feature","geometry":{"type":"Point","coordinates":[140.05035,39.09925]},"properties":{"name":"鳥海山","country":"Japan","website":null,"opening_hours":null,"capacity":null,"phone":null,"osmType":"node","osmId":1344157430,"elevation":"2236"}},{"type":"Feature","geometry":{"type":"Point","coordinates":[144.00879,43.38632]},"properties":{"name":"雌阿寒岳","country":"Japan","website":null,"opening_hours":null,"capacity":null,"phone":null,"osmType":"node","osmId":1366603211,"elevation":"1499"}},{"type":"Feature","geometry":{"type":"Point","coordinates":[144.71767,43.76573]},"properties":{"name":"斜里岳","country":"Japan","website":null,"opening_hours":null,"capacity":null,"phone":null,"osmType":"node","osmId":1366603214,"elevation":"1547"}},{"type":"Feature","geometry":{"type":"Point","coordinates":[141.24138,45.18043]},"properties":{"name":"利尻山","country":"Japan","website":null,"opening_hours":null,"capacity":null,"phone":null,"osmType":"node","osmId":1366603241,"elevation":"1721"}},{"type":"Feature","geometry":{"type":"Point","coordinates":[145.12223,44.07592]},"properties":{"name":"羅臼岳","country":"Japan","website":null,"opening_hours":null,"capacity":null,"phone":null,"osmType":"node","osmId":1366603243,"elevation":"1661"}},{"type":"Feature","geometry":{"type":"Point","coordinates":[139.52801,34.08843]},"properties":{"name":"雄山","country":"Japan","website":null,"opening_hours":null,"capacity":null,"phone":null,"osmType":"node","osmId":1563438382,"elevation":"775.1"}},{"type":"Feature","geometry":{"type":"Point","coordinates":[131.24089,33.0822]},"properties":{"name":"久住山","country":"Japan","website":null,"opening_hours":null,"capacity":null,"phone":null,"osmType":"node","osmId":1691773451,"elevation":"1786.5","type":"stratovolcano"}},{"type":"Feature","geometry":{"type":"Point","coordinates":[130.86151,31.93805]},"properties":{"name":"霧島山","country":"Japan","website":null,"opening_hours":null,"capacity":null,"phone":null,"osmType":"node","osmId":1852101603,"elevation":"1700"}},{"type":"Feature","geometry":{"type":"Point","coordinates":[146.13964,44.45438]},"properties":{"name":"Руруй","country":"Japan","website":null,"opening_hours":null,"capacity":null,"phone":null,"osmType":"node","osmId":2106458688,"elevation":"1485","type":"stratovolcano"}},{"type":"Feature","geometry":{"type":"Point","coordinates":[139.39922,34.72957]},"properties":{"name":"B1","country":"Japan","website":null,"opening_hours":null,"capacity":null,"phone":null,"osmType":"node","osmId":2118956382}},{"type":"Feature","geometry":{"type":"Point","coordinates":[139.39839,34.73028]},"properties":{"name":"B2","country":"Japan","website":null,"opening_hours":null,"capacity":null,"phone":null,"osmType":"node","osmId":2118971867}},{"type":"Feature","geometry":{"type":"Point","coordinates":[139.39454,34.72694]},"properties":{"name":null,"country":"Japan","website":null,"opening_hours":null,"capacity":null,"phone":null,"osmType":"node","osmId":2118995816,"elevation":"497"}},{"type":"Feature","geometry":{"type":"Point","coordinates":[139.39734,34.73103]},"properties":{"name":null,"country":"Japan","website":null,"opening_hours":null,"capacity":null,"phone":null,"osmType":"node","osmId":2119419969}},{"type":"Feature","geometry":{"type":"Point","coordinates":[144.40406,43.60003]},"properties":{"name":null,"country":"Japan","website":null,"opening_hours":null,"capacity":null,"phone":null,"osmType":"node","osmId":2482997126}},{"type":"Feature","geometry":{"type":"Point","coordinates":[144.40663,43.60091]},"properties":{"name":"ボッケ","country":"Japan","website":null,"opening_hours":null,"capacity":null,"phone":null,"osmType":"node","osmId":2482997169}},{"type":"Feature","geometry":{"type":"Point","coordinates":[144.40647,43.60097]},"properties":{"name":"ボッケ","country":"Japan","website":null,"opening_hours":null,"capacity":null,"phone":null,"osmType":"node","osmId":2482997170}},{"type":"Feature","geometry":{"type":"Point","coordinates":[144.40784,43.60116]},"properties":{"name":"第２硫黄山","country":"Japan","website":null,"opening_hours":null,"capacity":null,"phone":null,"osmType":"node","osmId":2482997171}},{"type":"Feature","geometry":{"type":"Point","coordinates":[139.17823,36.55524]},"properties":{"name":"赤城山","country":"Japan","website":null,"opening_hours":null,"capacity":null,"phone":null,"osmType":"node","osmId":2596204497}},{"type":"Feature","geometry":{"type":"Point","coordinates":[140.81203,42.55749]},"properties":{"name":"有くん火口","country":"Japan","website":null,"opening_hours":null,"capacity":null,"phone":null,"osmType":"node","osmId":3079995336}},{"type":"Feature","geometry":{"type":"Point","coordinates":[137.4788,35.89462]},"properties":{"name":"御嶽山","country":"Japan","website":null,"opening_hours":null,"capacity":null,"phone":null,"osmType":"node","osmId":3101369270,"type":"stratovolcano"}},{"type":"Feature","geometry":{"type":"Point","coordinates":[140.87734,40.65889]},"properties":{"name":"大岳","country":"Japan","website":null,"opening_hours":null,"capacity":null,"phone":null,"osmType":"node","osmId":3258247280,"elevation":"1584.5"}},{"type":"Feature","geometry":{"type":"Point","coordinates":[133.66365,35.32501]},"properties":{"name":"蒜山","country":"Japan","website":null,"opening_hours":null,"capacity":null,"phone":null,"osmType":"node","osmId":3259798269,"elevation":"1202"}},{"type":"Feature","geometry":{"type":"Point","coordinates":[140.86435,42.54255]},"properties":{"name":"昭和新山","country":"Japan","website":null,"opening_hours":null,"capacity":null,"phone":null,"osmType":"node","osmId":3292335660,"elevation":"398","type":"lava_dome"}},{"type":"Feature","geometry":{"type":"Point","coordinates":[140.79568,39.75307]},"properties":{"name":"秋田駒ヶ岳","country":"Japan","website":null,"opening_hours":null,"capacity":null,"phone":null,"osmType":"node","osmId":3578270582}},{"type":"Feature","geometry":{"type":"Point","coordinates":[130.29165,32.7619]},"properties":{"name":"雲仙岳","country":"Japan","website":null,"opening_hours":null,"capacity":null,"phone":null,"osmType":"node","osmId":3586241892}},{"type":"Feature","geometry":{"type":"Point","coordinates":[139.96368,37.12552]},"properties":{"name":"那須岳","country":"Japan","website":null,"opening_hours":null,"capacity":null,"phone":null,"osmType":"node","osmId":3598758549}},{"type":"Feature","geometry":{"type":"Point","coordinates":[132.6255,35.13466]},"properties":{"name":"三瓶山","country":"Japan","website":null,"opening_hours":null,"capacity":null,"phone":null,"osmType":"node","osmId":3600637057,"elevation":"1126","type":"stratovolcano"}},{"type":"Feature","geometry":{"type":"Point","coordinates":[140.44947,38.13645]},"properties":{"name":"蔵王山","country":"Japan","website":null,"opening_hours":null,"capacity":null,"phone":null,"osmType":"node","osmId":3600643281,"elevation":"1841","type":"stratovolcano"}},{"type":"Feature","geometry":{"type":"Point","coordinates":[141.08768,41.31695]},"properties":{"name":"恐山","country":"Japan","website":null,"opening_hours":null,"capacity":null,"phone":null,"osmType":"node","osmId":3600650310}},{"type":"Feature","geometry":{"type":"Point","coordinates":[130.66563,31.57521]},"properties":{"name":null,"country":"Japan","website":null,"opening_hours":null,"capacity":null,"phone":null,"osmType":"node","osmId":3698659760}},{"type":"Feature","geometry":{"type":"Point","coordinates":[130.66431,31.57693]},"properties":{"name":null,"country":"Japan","website":null,"opening_hours":null,"capacity":null,"phone":null,"osmType":"node","osmId":3698659761}},{"type":"Feature","geometry":{"type":"Point","coordinates":[130.66075,31.57851]},"properties":{"name":null,"country":"Japan","website":null,"opening_hours":null,"capacity":null,"phone":null,"osmType":"node","osmId":3698659762}},{"type":"Feature","geometry":{"type":"Point","coordinates":[130.66442,31.57905]},"properties":{"name":"Shōwa","country":"Japan","website":null,"opening_hours":null,"capacity":null,"phone":null,"osmType":"node","osmId":3698741198}},{"type":"Feature","geometry":{"type":"Point","coordinates":[130.21519,30.44581]},"properties":{"name":"新岳","country":"Japan","website":null,"opening_hours":null,"capacity":null,"phone":null,"osmType":"node","osmId":3730395406}},{"type":"Feature","geometry":{"type":"Point","coordinates":[130.88418,31.91111]},"properties":{"name":null,"country":"Japan","website":null,"opening_hours":null,"capacity":null,"phone":null,"osmType":"node","osmId":3810710626}},{"type":"Feature","geometry":{"type":"Point","coordinates":[139.01867,35.23958]},"properties":{"name":null,"country":"Japan","website":null,"opening_hours":null,"capacity":null,"phone":null,"osmType":"node","osmId":3810710655}},{"type":"Feature","geometry":{"type":"Point","coordinates":[139.02935,35.2399]},"properties":{"name":null,"country":"Japan","website":null,"opening_hours":null,"capacity":null,"phone":null,"osmType":"node","osmId":3810710656}},{"type":"Feature","geometry":{"type":"Point","coordinates":[139.02247,35.24304]},"properties":{"name":null,"country":"Japan","website":null,"opening_hours":null,"capacity":null,"phone":null,"osmType":"node","osmId":3810710661}},{"type":"Feature","geometry":{"type":"Point","coordinates":[139.02352,35.24459]},"properties":{"name":null,"country":"Japan","website":null,"opening_hours":null,"capacity":null,"phone":null,"osmType":"node","osmId":3810710664}},{"type":"Feature","geometry":{"type":"Point","coordinates":[137.48121,35.88877]},"properties":{"name":null,"country":"Japan","website":null,"opening_hours":null,"capacity":null,"phone":null,"osmType":"node","osmId":3810710675}},{"type":"Feature","geometry":{"type":"Point","coordinates":[137.47844,35.891]},"properties":{"name":null,"country":"Japan","website":null,"opening_hours":null,"capacity":null,"phone":null,"osmType":"node","osmId":3810710677}},{"type":"Feature","geometry":{"type":"Point","coordinates":[138.53598,36.64268]},"properties":{"name":null,"country":"Japan","website":null,"opening_hours":null,"capacity":null,"phone":null,"osmType":"node","osmId":3810710712}},{"type":"Feature","geometry":{"type":"Point","coordinates":[140.2479,37.72654]},"properties":{"name":"吾妻山","country":"Japan","website":null,"opening_hours":null,"capacity":null,"phone":null,"osmType":"node","osmId":3810710729,"elevation":"2035"}},{"type":"Feature","geometry":{"type":"Point","coordinates":[144.00647,43.37409]},"properties":{"name":"阿寒富士","country":"Japan","website":null,"opening_hours":null,"capacity":null,"phone":null,"osmType":"node","osmId":4248418572,"elevation":"1475.8"}},{"type":"Feature","geometry":{"type":"Point","coordinates":[139.35206,41.5137]},"properties":{"name":null,"country":"Japan","website":null,"opening_hours":null,"capacity":null,"phone":null,"osmType":"node","osmId":4269763015}},{"type":"Feature","geometry":{"type":"Point","coordinates":[130.3143,30.78759]},"properties":{"name":null,"country":"Japan","website":null,"opening_hours":null,"capacity":null,"phone":null,"osmType":"node","osmId":4271455105}},{"type":"Feature","geometry":{"type":"Point","coordinates":[130.30297,30.7898]},"properties":{"name":null,"country":"Japan","website":null,"opening_hours":null,"capacity":null,"phone":null,"osmType":"node","osmId":4271455106}},{"type":"Feature","geometry":{"type":"Point","coordinates":[130.31446,30.78991]},"properties":{"name":null,"country":"Japan","website":null,"opening_hours":null,"capacity":null,"phone":null,"osmType":"node","osmId":4271455109}},{"type":"Feature","geometry":{"type":"Point","coordinates":[130.30779,30.79131]},"properties":{"name":null,"country":"Japan","website":null,"opening_hours":null,"capacity":null,"phone":null,"osmType":"node","osmId":4271455112}},{"type":"Feature","geometry":{"type":"Point","coordinates":[130.3002,30.79303]},"properties":{"name":null,"country":"Japan","website":null,"opening_hours":null,"capacity":null,"phone":null,"osmType":"node","osmId":4271455113}},{"type":"Feature","geometry":{"type":"Point","coordinates":[130.30622,30.79674]},"properties":{"name":null,"country":"Japan","website":null,"opening_hours":null,"capacity":null,"phone":null,"osmType":"node","osmId":4271455114}},{"type":"Feature","geometry":{"type":"Point","coordinates":[139.52807,34.08008]},"properties":{"name":null,"country":"Japan","website":null,"opening_hours":null,"capacity":null,"phone":null,"osmType":"node","osmId":4273373440}},{"type":"Feature","geometry":{"type":"Point","coordinates":[139.52782,34.08064]},"properties":{"name":null,"country":"Japan","website":null,"opening_hours":null,"capacity":null,"phone":null,"osmType":"node","osmId":4273373449}},{"type":"Feature","geometry":{"type":"Point","coordinates":[139.52673,34.08118]},"properties":{"name":null,"country":"Japan","website":null,"opening_hours":null,"capacity":null,"phone":null,"osmType":"node","osmId":4273373457}},{"type":"Feature","geometry":{"type":"Point","coordinates":[139.5275,34.08147]},"properties":{"name":null,"country":"Japan","website":null,"opening_hours":null,"capacity":null,"phone":null,"osmType":"node","osmId":4273373458}},{"type":"Feature","geometry":{"type":"Point","coordinates":[139.52748,34.08218]},"properties":{"name":null,"country":"Japan","website":null,"opening_hours":null,"capacity":null,"phone":null,"osmType":"node","osmId":4273373464}},{"type":"Feature","geometry":{"type":"Point","coordinates":[139.52644,34.08222]},"properties":{"name":null,"country":"Japan","website":null,"opening_hours":null,"capacity":null,"phone":null,"osmType":"node","osmId":4273373466}},{"type":"Feature","geometry":{"type":"Point","coordinates":[139.52492,34.08234]},"properties":{"name":null,"country":"Japan","website":null,"opening_hours":null,"capacity":null,"phone":null,"osmType":"node","osmId":4273373467}},{"type":"Feature","geometry":{"type":"Point","coordinates":[139.52417,34.08262]},"properties":{"name":null,"country":"Japan","website":null,"opening_hours":null,"capacity":null,"phone":null,"osmType":"node","osmId":4273373469}},{"type":"Feature","geometry":{"type":"Point","coordinates":[139.52595,34.08289]},"properties":{"name":null,"country":"Japan","website":null,"opening_hours":null,"capacity":null,"phone":null,"osmType":"node","osmId":4273373471}},{"type":"Feature","geometry":{"type":"Point","coordinates":[139.52737,34.08291]},"properties":{"name":null,"country":"Japan","website":null,"opening_hours":null,"capacity":null,"phone":null,"osmType":"node","osmId":4273373472}},{"type":"Feature","geometry":{"type":"Point","coordinates":[139.52674,34.08316]},"properties":{"name":null,"country":"Japan","website":null,"opening_hours":null,"capacity":null,"phone":null,"osmType":"node","osmId":4273373474}},{"type":"Feature","geometry":{"type":"Point","coordinates":[139.52916,34.08433]},"properties":{"name":null,"country":"Japan","website":null,"opening_hours":null,"capacity":null,"phone":null,"osmType":"node","osmId":4273373477}},{"type":"Feature","geometry":{"type":"Point","coordinates":[139.52903,34.08481]},"properties":{"name":null,"country":"Japan","website":null,"opening_hours":null,"capacity":null,"phone":null,"osmType":"node","osmId":4273373481}},{"type":"Feature","geometry":{"type":"Point","coordinates":[139.5275,34.08496]},"properties":{"name":null,"country":"Japan","website":null,"opening_hours":null,"capacity":null,"phone":null,"osmType":"node","osmId":4273373483}},{"type":"Feature","geometry":{"type":"Point","coordinates":[139.52092,34.08544]},"properties":{"name":null,"country":"Japan","website":null,"opening_hours":null,"capacity":null,"phone":null,"osmType":"node","osmId":4273381090}},{"type":"Feature","geometry":{"type":"Point","coordinates":[139.52189,34.08554]},"properties":{"name":null,"country":"Japan","website":null,"opening_hours":null,"capacity":null,"phone":null,"osmType":"node","osmId":4273381091}},{"type":"Feature","geometry":{"type":"Point","coordinates":[137.54969,36.10676]},"properties":{"name":"乗鞍岳","country":"Japan","website":null,"opening_hours":null,"capacity":null,"phone":null,"osmType":"node","osmId":4317246954,"elevation":"3026"}},{"type":"Feature","geometry":{"type":"Point","coordinates":[137.58824,36.22889]},"properties":{"name":"焼岳","country":"Japan","website":null,"opening_hours":null,"capacity":null,"phone":null,"osmType":"node","osmId":4318282024,"elevation":"2455"}},{"type":"Feature","geometry":{"type":"Point","coordinates":[144.1646,43.45406]},"properties":{"name":"雄阿寒岳","country":"Japan","website":null,"opening_hours":null,"capacity":null,"phone":null,"osmType":"node","osmId":4358208302,"elevation":"1370.4"}},{"type":"Feature","geometry":{"type":"Point","coordinates":[144.44088,43.61097]},"properties":{"name":"熊落とし","country":"Japan","website":null,"opening_hours":null,"capacity":null,"phone":null,"osmType":"node","osmId":4358597241}},{"type":"Feature","geometry":{"type":"Point","coordinates":[139.28726,36.95296]},"properties":{"name":"燧ヶ岳","country":"Japan","website":null,"opening_hours":null,"capacity":null,"phone":null,"osmType":"node","osmId":4360109215,"elevation":"2356"}},{"type":"Feature","geometry":{"type":"Point","coordinates":[140.30307,40.65591]},"properties":{"name":"岩木山","country":"Japan","website":null,"opening_hours":null,"capacity":null,"phone":null,"osmType":"node","osmId":4382929357,"elevation":"1624.62"}},{"type":"Feature","geometry":{"type":"Point","coordinates":[144.56091,43.57229]},"properties":{"name":"カムイヌプリ","country":"Japan","website":null,"opening_hours":null,"capacity":null,"phone":null,"osmType":"node","osmId":4392906940,"elevation":"857"}},{"type":"Feature","geometry":{"type":"Point","coordinates":[145.16129,44.13329]},"properties":{"name":"硫黄山","country":"Japan","website":null,"opening_hours":null,"capacity":null,"phone":null,"osmType":"node","osmId":4664981452,"elevation":"1562"}},{"type":"Feature","geometry":{"type":"Point","coordinates":[145.27394,44.23573]},"properties":{"name":"知床岳","country":"Japan","website":null,"opening_hours":null,"capacity":null,"phone":null,"osmType":"node","osmId":4664981454,"elevation":"1254.3"}},{"type":"Feature","geometry":{"type":"Point","coordinates":[145.05119,44.02229]},"properties":{"name":"知西別岳","country":"Japan","website":null,"opening_hours":null,"capacity":null,"phone":null,"osmType":"node","osmId":4685979073,"elevation":"1317"}},{"type":"Feature","geometry":{"type":"Point","coordinates":[133.67557,35.31989]},"properties":{"name":"中蒜山","country":"Japan","website":null,"opening_hours":null,"capacity":null,"phone":null,"osmType":"node","osmId":4827125403,"elevation":"1123"}},{"type":"Feature","geometry":{"type":"Point","coordinates":[141.00209,39.85015]},"properties":{"name":"岩手山","country":"Japan","website":null,"opening_hours":null,"capacity":null,"phone":null,"osmType":"node","osmId":5214573299,"elevation":"2038"}},{"type":"Feature","geometry":{"type":"Point","coordinates":[138.78356,35.02372]},"properties":{"name":"大瀬崎南火道","country":"Japan","website":null,"opening_hours":null,"capacity":null,"phone":null,"osmType":"node","osmId":5327511556}},{"type":"Feature","geometry":{"type":"Point","coordinates":[138.9829,34.86131]},"properties":{"name":"皮子平","country":"Japan","website":null,"opening_hours":null,"capacity":null,"phone":null,"osmType":"node","osmId":5327511557}},{"type":"Feature","geometry":{"type":"Point","coordinates":[138.53385,36.62221]},"properties":{"name":"中央火口","country":"Japan","website":null,"opening_hours":null,"capacity":null,"phone":null,"osmType":"node","osmId":5356949106,"elevation":"2076"}},{"type":"Feature","geometry":{"type":"Point","coordinates":[138.80321,35.22697]},"properties":{"name":"愛鷹山","country":"Japan","website":null,"opening_hours":null,"capacity":null,"phone":null,"osmType":"node","osmId":5385452247}},{"type":"Feature","geometry":{"type":"Point","coordinates":[133.66239,35.32669]},"properties":{"name":"上蒜山","country":"Japan","website":null,"opening_hours":null,"capacity":null,"phone":null,"osmType":"node","osmId":5386992373,"elevation":"1202"}},{"type":"Feature","geometry":{"type":"Point","coordinates":[133.70069,35.32513]},"properties":{"name":"下蒜山","country":"Japan","website":null,"opening_hours":null,"capacity":null,"phone":null,"osmType":"node","osmId":5386992374,"elevation":"1100"}},{"type":"Feature","geometry":{"type":"Point","coordinates":[130.85406,31.94708]},"properties":{"name":"硫黄山","country":"Japan","website":null,"opening_hours":null,"capacity":null,"phone":null,"osmType":"node","osmId":5423854154,"elevation":"1317"}},{"type":"Feature","geometry":{"type":"Point","coordinates":[138.92894,34.86294]},"properties":{"name":"鉢窪山","country":"Japan","website":null,"opening_hours":null,"capacity":null,"phone":null,"osmType":"node","osmId":5501273694,"elevation":"674.4","type":"scoria"}},{"type":"Feature","geometry":{"type":"Point","coordinates":[138.93863,34.85513]},"properties":{"name":"丸山","country":"Japan","website":null,"opening_hours":null,"capacity":null,"phone":null,"osmType":"node","osmId":5513753736,"elevation":"938.4"}},{"type":"Feature","geometry":{"type":"Point","coordinates":[139.03246,34.87888]},"properties":{"name":"遠笠山","country":"Japan","website":null,"opening_hours":null,"capacity":null,"phone":null,"osmType":"node","osmId":5513753737,"elevation":"1197.2"}},{"type":"Feature","geometry":{"type":"Point","coordinates":[139.05732,34.89485]},"properties":{"name":"矢筈山","country":"Japan","website":null,"opening_hours":null,"capacity":null,"phone":null,"osmType":"node","osmId":5513753738,"elevation":"816"}},{"type":"Feature","geometry":{"type":"Point","coordinates":[139.08155,34.90217]},"properties":{"name":"台ノ山","country":"Japan","website":null,"opening_hours":null,"capacity":null,"phone":null,"osmType":"node","osmId":5513753739}},{"type":"Feature","geometry":{"type":"Point","coordinates":[139.07957,34.87164]},"properties":{"name":"伊雄山","country":"Japan","website":null,"opening_hours":null,"capacity":null,"phone":null,"osmType":"node","osmId":5513753740,"elevation":"459.4","type":"scoria"}},{"type":"Feature","geometry":{"type":"Point","coordinates":[139.03728,35.00518]},"properties":{"name":"巣雲山","country":"Japan","website":null,"opening_hours":null,"capacity":null,"phone":null,"osmType":"node","osmId":5513753741,"elevation":"581.0"}},{"type":"Feature","geometry":{"type":"Point","coordinates":[139.02258,34.91107]},"properties":{"name":"丸野山","country":"Japan","website":null,"opening_hours":null,"capacity":null,"phone":null,"osmType":"node","osmId":5513753742,"elevation":"696.8"}},{"type":"Feature","geometry":{"type":"Point","coordinates":[140.80224,42.5546]},"properties":{"name":"西山山麓火口","country":"Japan","website":null,"opening_hours":null,"capacity":null,"phone":null,"osmType":"node","osmId":5569537530}},{"type":"Feature","geometry":{"type":"Point","coordinates":[133.62024,35.32936]},"properties":{"name":"二俣山","country":"Japan","website":null,"opening_hours":null,"capacity":null,"phone":null,"osmType":"node","osmId":5975794521,"elevation":"1083"}},{"type":"Feature","geometry":{"type":"Point","coordinates":[133.5946,35.34091]},"properties":{"name":"擬宝珠山","country":"Japan","website":null,"opening_hours":null,"capacity":null,"phone":null,"osmType":"node","osmId":5975794524,"elevation":"1110"}},{"type":"Feature","geometry":{"type":"Point","coordinates":[138.97032,34.79259]},"properties":{"name":"鉢ノ山","country":"Japan","website":null,"opening_hours":null,"capacity":null,"phone":null,"osmType":"node","osmId":6763259413,"elevation":"618.8","type":"scoria"}},{"type":"Feature","geometry":{"type":"Point","coordinates":[139.03904,34.91293]},"properties":{"name":"岩山","country":"Japan","website":null,"opening_hours":null,"capacity":null,"phone":null,"osmType":"node","osmId":6763259421,"elevation":"602"}},{"type":"Feature","geometry":{"type":"Point","coordinates":[138.9806,35.01628]},"properties":{"name":"高塚山","country":"Japan","website":null,"opening_hours":null,"capacity":null,"phone":null,"osmType":"node","osmId":6763302342,"type":"scoria"}},{"type":"Feature","geometry":{"type":"Point","coordinates":[138.89558,34.92119]},"properties":{"name":"舩原","country":"Japan","website":null,"opening_hours":null,"capacity":null,"phone":null,"osmType":"node","osmId":6769430094,"type":"scoria"}},{"type":"Feature","geometry":{"type":"Point","coordinates":[138.94148,34.81046]},"properties":{"name":"登り尾南","country":"Japan","website":null,"opening_hours":null,"capacity":null,"phone":null,"osmType":"node","osmId":6769430095}},{"type":"Feature","geometry":{"type":"Point","coordinates":[138.99457,34.78461]},"properties":{"name":"大池","country":"Japan","website":null,"opening_hours":null,"capacity":null,"phone":null,"osmType":"node","osmId":6769430096}},{"type":"Feature","geometry":{"type":"Point","coordinates":[138.98933,34.78942]},"properties":{"name":"小池","country":"Japan","website":null,"opening_hours":null,"capacity":null,"phone":null,"osmType":"node","osmId":6769430097,"type":"scoria"}},{"type":"Feature","geometry":{"type":"Point","coordinates":[139.04305,34.78643]},"properties":{"name":"稲取","country":"Japan","website":null,"opening_hours":null,"capacity":null,"phone":null,"osmType":"node","osmId":6769430098,"type":"scoria"}},{"type":"Feature","geometry":{"type":"Point","coordinates":[139.07416,34.96368]},"properties":{"name":"鉢ヶ窪","country":"Japan","website":null,"opening_hours":null,"capacity":null,"phone":null,"osmType":"node","osmId":6769430099,"type":"scoria"}},{"type":"Feature","geometry":{"type":"Point","coordinates":[139.06447,34.95678]},"properties":{"name":"馬場平","country":"Japan","website":null,"opening_hours":null,"capacity":null,"phone":null,"osmType":"node","osmId":6769430100,"type":"scoria"}},{"type":"Feature","geometry":{"type":"Point","coordinates":[139.05385,34.89986]},"properties":{"name":"孔ノ山","country":"Japan","website":null,"opening_hours":null,"capacity":null,"phone":null,"osmType":"node","osmId":6769430101}},{"type":"Feature","geometry":{"type":"Point","coordinates":[139.00139,34.88742]},"properties":{"name":"地蔵堂","country":"Japan","website":null,"opening_hours":null,"capacity":null,"phone":null,"osmType":"node","osmId":6769430102,"type":"scoria"}},{"type":"Feature","geometry":{"type":"Point","coordinates":[138.91415,34.79691]},"properties":{"name":"沼ノ川南","country":"Japan","website":null,"opening_hours":null,"capacity":null,"phone":null,"osmType":"node","osmId":6769480479}},{"type":"Feature","geometry":{"type":"Point","coordinates":[138.90409,34.80982]},"properties":{"name":"沼ノ川北","country":"Japan","website":null,"opening_hours":null,"capacity":null,"phone":null,"osmType":"node","osmId":6769480480}},{"type":"Feature","geometry":{"type":"Point","coordinates":[138.90622,34.82798]},"properties":{"name":"二本杉林道","country":"Japan","website":null,"opening_hours":null,"capacity":null,"phone":null,"osmType":"node","osmId":6769480481}},{"type":"Feature","geometry":{"type":"Point","coordinates":[138.98469,34.78518]},"properties":{"name":"天子平","country":"Japan","website":null,"opening_hours":null,"capacity":null,"phone":null,"osmType":"node","osmId":6769480482}},{"type":"Feature","geometry":{"type":"Point","coordinates":[138.97699,34.77408]},"properties":{"name":"河津筏場","country":"Japan","website":null,"opening_hours":null,"capacity":null,"phone":null,"osmType":"node","osmId":6769480483}},{"type":"Feature","geometry":{"type":"Point","coordinates":[139.03411,34.80886]},"properties":{"name":"堰口","country":"Japan","website":null,"opening_hours":null,"capacity":null,"phone":null,"osmType":"node","osmId":6769480484}},{"type":"Feature","geometry":{"type":"Point","coordinates":[139.01312,34.8358]},"properties":{"name":"川久保川火山","country":"Japan","website":null,"opening_hours":null,"capacity":null,"phone":null,"osmType":"node","osmId":6769494985}},{"type":"Feature","geometry":{"type":"Point","coordinates":[139.06524,34.86282]},"properties":{"name":"赤窪","country":"Japan","website":null,"opening_hours":null,"capacity":null,"phone":null,"osmType":"node","osmId":6769494986}},{"type":"Feature","geometry":{"type":"Point","coordinates":[139.11319,34.95221]},"properties":{"name":"城星","country":"Japan","website":null,"opening_hours":null,"capacity":null,"phone":null,"osmType":"node","osmId":6769494987}},{"type":"Feature","geometry":{"type":"Point","coordinates":[139.13122,34.9395]},"properties":{"name":"小室山","country":"Japan","website":null,"opening_hours":null,"capacity":null,"phone":null,"osmType":"node","osmId":6769494988}},{"type":"Feature","geometry":{"type":"Point","coordinates":[139.10721,34.96201]},"properties":{"name":"内野","country":"Japan","website":null,"opening_hours":null,"capacity":null,"phone":null,"osmType":"node","osmId":6769494989}},{"type":"Feature","geometry":{"type":"Point","coordinates":[139.12403,34.9243]},"properties":{"name":"地久保","country":"Japan","website":null,"opening_hours":null,"capacity":null,"phone":null,"osmType":"node","osmId":6769494991}},{"type":"Feature","geometry":{"type":"Point","coordinates":[139.12668,34.92149]},"properties":{"name":"梅木平","country":"Japan","website":null,"opening_hours":null,"capacity":null,"phone":null,"osmType":"node","osmId":6769494992}},{"type":"Feature","geometry":{"type":"Point","coordinates":[139.11504,34.91684]},"properties":{"name":"高室山","country":"Japan","website":null,"opening_hours":null,"capacity":null,"phone":null,"osmType":"node","osmId":6769494993,"elevation":"310"}},{"type":"Feature","geometry":{"type":"Point","coordinates":[138.94712,34.86797]},"properties":{"name":"与一坂","country":"Japan","website":null,"opening_hours":null,"capacity":null,"phone":null,"osmType":"node","osmId":6769494995}},{"type":"Feature","geometry":{"type":"Point","coordinates":[138.91481,34.84363]},"properties":{"name":"滑沢","country":"Japan","website":null,"opening_hours":null,"capacity":null,"phone":null,"osmType":"node","osmId":6769494996}},{"type":"Feature","geometry":{"type":"Point","coordinates":[138.92852,34.84868]},"properties":{"name":"エサシノ峰","country":"Japan","website":null,"opening_hours":null,"capacity":null,"phone":null,"osmType":"node","osmId":6769494997}},{"type":"Feature","geometry":{"type":"Point","coordinates":[139.02535,35.0098]},"properties":{"name":"長者原","country":"Japan","website":null,"opening_hours":null,"capacity":null,"phone":null,"osmType":"node","osmId":6769494998}},{"type":"Feature","geometry":{"type":"Point","coordinates":[139.87033,39.93139]},"properties":{"name":null,"country":"Japan","website":null,"opening_hours":null,"capacity":null,"phone":null,"osmType":"node","osmId":7108477465,"elevation":"225.5"}},{"type":"Feature","geometry":{"type":"Point","coordinates":[130.90981,31.88545]},"properties":{"name":"御鉢","country":"Japan","website":null,"opening_hours":null,"capacity":null,"phone":null,"osmType":"node","osmId":7504983244}},{"type":"Feature","geometry":{"type":"Point","coordinates":[139.77388,36.89834]},"properties":{"name":"高原山","country":"Japan","website":null,"opening_hours":null,"capacity":null,"phone":null,"osmType":"node","osmId":7590585795,"elevation":"1795"}},{"type":"Feature","geometry":{"type":"Point","coordinates":[140.64049,42.88532]},"properties":{"name":"イワオヌプリ","country":"Japan","website":null,"opening_hours":null,"capacity":null,"phone":null,"osmType":"node","osmId":7811796135,"elevation":"1116"}},{"type":"Feature","geometry":{"type":"Point","coordinates":[139.96287,39.11584]},"properties":{"name":"猿穴噴火口","country":"Japan","website":null,"opening_hours":null,"capacity":null,"phone":null,"osmType":"node","osmId":8510382846}},{"type":"Feature","geometry":{"type":"Point","coordinates":[139.96401,39.11618]},"properties":{"name":null,"country":"Japan","website":null,"opening_hours":null,"capacity":null,"phone":null,"osmType":"node","osmId":8510382847}},{"type":"Feature","geometry":{"type":"Point","coordinates":[140.81046,42.55959]},"properties":{"name":"珠ちゃん火口","country":"Japan","website":null,"opening_hours":null,"capacity":null,"phone":null,"osmType":"node","osmId":8530761890}},{"type":"Feature","geometry":{"type":"Point","coordinates":[138.03491,36.92112]},"properties":{"name":null,"country":"Japan","website":null,"opening_hours":null,"capacity":null,"phone":null,"osmType":"node","osmId":8592083931}},{"type":"Feature","geometry":{"type":"Point","coordinates":[137.47637,35.89013]},"properties":{"name":null,"country":"Japan","website":null,"opening_hours":null,"capacity":null,"phone":null,"osmType":"node","osmId":8674333817}},{"type":"Feature","geometry":{"type":"Point","coordinates":[137.4796,35.88989]},"properties":{"name":null,"country":"Japan","website":null,"opening_hours":null,"capacity":null,"phone":null,"osmType":"node","osmId":8674333818}},{"type":"Feature","geometry":{"type":"Point","coordinates":[138.03749,36.92171]},"properties":{"name":null,"country":"Japan","website":null,"opening_hours":null,"capacity":null,"phone":null,"osmType":"node","osmId":8676135987}},{"type":"Feature","geometry":{"type":"Point","coordinates":[141.29069,42.79481]},"properties":{"name":null,"country":"Japan","website":null,"opening_hours":null,"capacity":null,"phone":null,"osmType":"node","osmId":8689140093}},{"type":"Feature","geometry":{"type":"Point","coordinates":[145.0858,44.04445]},"properties":{"name":"天頂山","country":"Japan","website":null,"opening_hours":null,"capacity":null,"phone":null,"osmType":"node","osmId":8689153387,"elevation":"1046"}},{"type":"Feature","geometry":{"type":"Point","coordinates":[134.67453,35.50567]},"properties":{"name":"神鍋山噴火口","country":"Japan","website":null,"opening_hours":null,"capacity":null,"phone":null,"osmType":"node","osmId":9027300789,"elevation":"409"}},{"type":"Feature","geometry":{"type":"Point","coordinates":[131.40198,34.44971]},"properties":{"name":"笠山","country":"Japan","website":null,"opening_hours":null,"capacity":null,"phone":null,"osmType":"node","osmId":9307554788}},{"type":"Feature","geometry":{"type":"Point","coordinates":[145.14226,44.14669]},"properties":{"name":null,"country":"Japan","website":null,"opening_hours":null,"capacity":null,"phone":null,"osmType":"node","osmId":9838889637}},{"type":"Feature","geometry":{"type":"Point","coordinates":[145.14506,44.14742]},"properties":{"name":null,"country":"Japan","website":null,"opening_hours":null,"capacity":null,"phone":null,"osmType":"node","osmId":9838889638}},{"type":"Feature","geometry":{"type":"Point","coordinates":[145.14127,44.14859]},"properties":{"name":null,"country":"Japan","website":null,"opening_hours":null,"capacity":null,"phone":null,"osmType":"node","osmId":9838889639}},{"type":"Feature","geometry":{"type":"Point","coordinates":[140.72454,38.73359]},"properties":{"name":"鳴子火山群","country":"Japan","website":null,"opening_hours":null,"capacity":null,"phone":null,"osmType":"node","osmId":10259802270,"elevation":"470"}},{"type":"Feature","geometry":{"type":"Point","coordinates":[140.88345,40.46597]},"properties":{"name":"十和田火山","country":"Japan","website":null,"opening_hours":null,"capacity":null,"phone":null,"osmType":"node","osmId":10262444402}},{"type":"Feature","geometry":{"type":"Point","coordinates":[140.83435,42.54277]},"properties":{"name":"有珠山","country":"Japan","website":null,"opening_hours":null,"capacity":null,"phone":null,"osmType":"node","osmId":10711400983,"elevation":"733","type":"stratovolcano"}},{"type":"Feature","geometry":{"type":"Point","coordinates":[138.51978,36.40709]},"properties":{"name":null,"country":"Japan","website":null,"opening_hours":null,"capacity":null,"phone":null,"osmType":"node","osmId":10773203599}},{"type":"Feature","geometry":{"type":"Point","coordinates":[139.44117,34.54671]},"properties":{"name":"大室海穴","country":"Japan","website":null,"opening_hours":null,"capacity":null,"phone":null,"osmType":"node","osmId":11731588154,"elevation":"-100"}},{"type":"Feature","geometry":{"type":"Point","coordinates":[139.48684,34.07507]},"properties":{"name":"コシキの穴","country":"Japan","website":null,"opening_hours":null,"capacity":null,"phone":null,"osmType":"node","osmId":11994595272}},{"type":"Feature","geometry":{"type":"Point","coordinates":[130.21614,30.43897]},"properties":{"name":null,"country":"Japan","website":null,"opening_hours":null,"capacity":null,"phone":null,"osmType":"node","osmId":12968490929}},{"type":"Feature","geometry":{"type":"Point","coordinates":[130.21829,30.45252]},"properties":{"name":null,"country":"Japan","website":null,"opening_hours":null,"capacity":null,"phone":null,"osmType":"node","osmId":12968490930}},{"type":"Feature","geometry":{"type":"Point","coordinates":[130.26429,32.73873]},"properties":{"name":"泥火山","country":"Japan","website":null,"opening_hours":null,"capacity":null,"phone":null,"osmType":"node","osmId":13380413353,"type":"mud_volcano"}},{"type":"Feature","geometry":{"type":"Point","coordinates":[139.53055,34.09828]},"properties":{"name":"1874年噴火口","country":"Japan","website":null,"opening_hours":null,"capacity":null,"phone":null,"osmType":"node","osmId":13506329524}},{"type":"Feature","geometry":{"type":"Point","coordinates":[139.53164,34.09565]},"properties":{"name":"ミソド穴","country":"Japan","website":null,"opening_hours":null,"capacity":null,"phone":null,"osmType":"node","osmId":13506329525}},{"type":"Feature","geometry":{"type":"Point","coordinates":[139.53141,34.09722]},"properties":{"name":"コシキ穴","country":"Japan","website":null,"opening_hours":null,"capacity":null,"phone":null,"osmType":"node","osmId":13506329526}},{"type":"Feature","geometry":{"type":"Point","coordinates":[139.53163,34.09943]},"properties":{"name":"大穴","country":"Japan","website":null,"opening_hours":null,"capacity":null,"phone":null,"osmType":"node","osmId":13506329527}},{"type":"Feature","geometry":{"type":"Point","coordinates":[139.53075,34.09393]},"properties":{"name":"スオウ穴","country":"Japan","website":null,"opening_hours":null,"capacity":null,"phone":null,"osmType":"node","osmId":13506329605}}]}