{"type":"FeatureCollection","features":[{"type":"Feature","geometry":{"type":"Point","coordinates":[121.49232,14.06753]},"properties":{"name":"Mount Banahaw","country":"Philippines","website":null,"opening_hours":null,"capacity":null,"phone":null,"address":null,"ele":"2169","operator":null,"wikipedia":"en:Mount Banahaw","wikidata":"Q806074","description":"Last erupted 1843, Number of eruptions = 3","wheelchair":null,"osmType":"node","osmId":319478119,"elevation":"2169","type":"stratovolcano"}},{"type":"Feature","geometry":{"type":"Point","coordinates":[124.05651,12.76906]},"properties":{"name":"Mount Bulusan","country":"Philippines","website":null,"opening_hours":null,"capacity":null,"phone":null,"address":null,"ele":"1565","operator":null,"wikipedia":null,"wikidata":"Q473435","description":"Last erupted 1994 Nov.-1995 Jan., Number of eruptions = 15","wheelchair":null,"osmType":"node","osmId":319478122,"elevation":"1565","type":"stratovolcano"}},{"type":"Feature","geometry":{"type":"Point","coordinates":[122.12053,18.21616]},"properties":{"name":"Mount Cagua","country":"Philippines","website":null,"opening_hours":null,"capacity":null,"phone":null,"address":null,"ele":"1160","operator":null,"wikipedia":null,"wikidata":null,"description":"Last erupted 1907, Number of eruptions = 2","wheelchair":null,"osmType":"node","osmId":319478123,"elevation":"1160","type":"stratovolcano"}},{"type":"Feature","geometry":{"type":"Point","coordinates":[121.86134,18.83286]},"properties":{"name":"Mount Camiguin","country":"Philippines","website":null,"opening_hours":null,"capacity":null,"phone":null,"address":null,"ele":"712","operator":null,"wikipedia":"en:Camiguin de Babuyanes","wikidata":"Q1028902","description":null,"wheelchair":null,"osmType":"node","osmId":319478124,"elevation":"712","type":"stratovolcano"}},{"type":"Feature","geometry":{"type":"Point","coordinates":[121.21566,19.07351]},"properties":{"name":"Dalupiri","country":"Philippines","website":null,"opening_hours":null,"capacity":null,"phone":null,"address":null,"ele":"275","operator":null,"wikipedia":null,"wikidata":null,"description":null,"wheelchair":null,"osmType":"node","osmId":319478125,"elevation":"275","type":"stratovolcano"}},{"type":"Feature","geometry":{"type":"Point","coordinates":[124.67599,9.19943]},"properties":{"name":"Mount Hibok-Hibok","country":"Philippines","website":null,"opening_hours":null,"capacity":null,"phone":null,"address":null,"ele":"1290","operator":null,"wikipedia":"en:Mount Hibok-Hibok","wikidata":"Q1319819","description":null,"wheelchair":null,"osmType":"node","osmId":319478126,"elevation":"1290","type":"stratovolcano"}},{"type":"Feature","geometry":{"type":"Point","coordinates":[123.45602,13.45581]},"properties":{"name":"Iriga","country":"Philippines","website":null,"opening_hours":null,"capacity":null,"phone":null,"address":null,"ele":"1143","operator":null,"wikipedia":null,"wikidata":"Q1672640","description":"Last erupted 1642 Jan. 4, Number of eruptions = 2","wheelchair":null,"osmType":"node","osmId":319478128,"elevation":"1143","type":"stratovolcano"}},{"type":"Feature","geometry":{"type":"Point","coordinates":[123.13245,10.41139]},"properties":{"name":"Mount Kanlaon","country":"Philippines","website":null,"opening_hours":null,"capacity":null,"phone":null,"address":null,"ele":"2280","operator":null,"wikipedia":"en:Kanlaon","wikidata":"Q1723814","description":"Last erupted 3 June 2024, Number of eruptions = 31","wheelchair":null,"osmType":"node","osmId":319478129,"elevation":"2280","type":"stratovolcano"}},{"type":"Feature","geometry":{"type":"Point","coordinates":[126.06267,7.39398]},"properties":{"name":"Leonard Kniaseff","country":"Philippines","website":null,"opening_hours":null,"capacity":null,"phone":null,"address":null,"ele":"200","operator":null,"wikipedia":"en:Leonard Kniaseff","wikidata":"Q1819013","description":null,"wheelchair":null,"osmType":"node","osmId":319478132,"elevation":"200","type":"stratovolcano"}},{"type":"Feature","geometry":{"type":"Point","coordinates":[124.30313,7.65453]},"properties":{"name":"Mount Makaturing","country":"Philippines","website":null,"opening_hours":null,"capacity":null,"phone":null,"address":null,"ele":"1940","operator":null,"wikipedia":"en:Mount Makaturing","wikidata":"Q1586051","description":null,"wheelchair":null,"osmType":"node","osmId":319478134,"elevation":"1940","type":"stratovolcano"}},{"type":"Feature","geometry":{"type":"Point","coordinates":[125.07618,6.36004]},"properties":{"name":"Mount Matutum","country":"Philippines","website":null,"opening_hours":null,"capacity":null,"phone":null,"address":null,"ele":"2286","operator":null,"wikipedia":"en:Mount Matutum","wikidata":"Q1910848","description":"Last erupted 1911 March 07","wheelchair":null,"osmType":"node","osmId":319478135,"elevation":"2286","type":"stratovolcano"}},{"type":"Feature","geometry":{"type":"Point","coordinates":[123.68581,13.25581]},"properties":{"name":"Mount Mayon","country":"Philippines","website":null,"opening_hours":null,"capacity":null,"phone":null,"address":null,"ele":"2460","operator":null,"wikipedia":"en:Mayon","wikidata":"Q1484","description":null,"wheelchair":null,"osmType":"node","osmId":319478136,"elevation":"2460","type":"stratovolcano"}},{"type":"Feature","geometry":{"type":"Point","coordinates":[120.34906,15.14456]},"properties":{"name":"Mount Pinatubo","country":"Philippines","website":null,"opening_hours":null,"capacity":null,"phone":null,"address":null,"ele":"1445","operator":null,"wikipedia":"en:Mount Pinatubo","wikidata":"Q1451","description":null,"wheelchair":null,"osmType":"node","osmId":319478140,"elevation":"1445","type":"stratovolcano"}},{"type":"Feature","geometry":{"type":"Point","coordinates":[120.99859,14.01067]},"properties":{"name":"Taal Volcano","country":"Philippines","website":null,"opening_hours":null,"capacity":null,"phone":null,"address":null,"ele":"311","operator":null,"wikipedia":"en:Taal Volcano","wikidata":"Q818475","description":"Last erupted on 31 March 2022 and 02.Oct. 2024","wheelchair":null,"osmType":"node","osmId":319478141,"elevation":"311","type":"tuff_cone"}},{"type":"Feature","geometry":{"type":"Point","coordinates":[124.8887,6.10221]},"properties":{"name":"Mount Melibengoy","country":"Philippines","website":null,"opening_hours":null,"capacity":null,"phone":null,"address":null,"ele":null,"operator":null,"wikipedia":"en:Mount Melibengoy","wikidata":"Q1582571","description":null,"wheelchair":null,"osmType":"node","osmId":319518806,"type":"stratovolcano"}},{"type":"Feature","geometry":{"type":"Point","coordinates":[124.7,11.03333]},"properties":{"name":"Abunug","country":"Philippines","website":null,"opening_hours":null,"capacity":null,"phone":null,"address":null,"ele":"600","operator":null,"wikipedia":null,"wikidata":null,"description":null,"wheelchair":null,"osmType":"node","osmId":319588207,"elevation":"600"}},{"type":"Feature","geometry":{"type":"Point","coordinates":[121.1,17.31667]},"properties":{"name":"Ambalatungan","country":"Philippines","website":null,"opening_hours":null,"capacity":null,"phone":null,"address":null,"ele":"1881","operator":null,"wikipedia":"en:Mount Binuluan","wikidata":"Q456607","description":null,"wheelchair":null,"osmType":"node","osmId":319588215,"elevation":"1881"}},{"type":"Feature","geometry":{"type":"Point","coordinates":[123.62288,8.37794]},"properties":{"name":"Mount Ampiro","country":"Philippines","website":null,"opening_hours":null,"capacity":null,"phone":null,"address":null,"ele":"1532","operator":null,"wikipedia":null,"wikidata":null,"description":null,"wheelchair":null,"osmType":"node","osmId":319588218,"elevation":"1532"}},{"type":"Feature","geometry":{"type":"Point","coordinates":[121.43333,19.31667]},"properties":{"name":"Bagua","country":"Philippines","website":null,"opening_hours":null,"capacity":null,"phone":null,"address":null,"ele":"0","operator":null,"wikipedia":null,"wikidata":null,"description":null,"wheelchair":null,"osmType":"node","osmId":319588227,"elevation":"0"}},{"type":"Feature","geometry":{"type":"Point","coordinates":[121.93353,18.95027]},"properties":{"name":"Mount Balatubat","country":"Philippines","website":null,"opening_hours":null,"capacity":null,"phone":null,"address":null,"ele":"800","operator":null,"wikipedia":null,"wikidata":null,"description":null,"wheelchair":null,"osmType":"node","osmId":319588228,"elevation":"800"}},{"type":"Feature","geometry":{"type":"Point","coordinates":[124.97579,8.74984]},"properties":{"name":"Mount Balatukan","country":"Philippines","website":null,"opening_hours":null,"capacity":null,"phone":null,"address":null,"ele":"2400","operator":null,"wikipedia":"en:Mount Balatukan","wikidata":"Q804660","description":null,"wheelchair":null,"osmType":"node","osmId":319588229,"elevation":"2400","type":"stratovolcano"}},{"type":"Feature","geometry":{"type":"Point","coordinates":[120.35858,14.95862]},"properties":{"name":"Mount Balikabok","country":"Philippines","website":null,"opening_hours":null,"capacity":null,"phone":null,"address":null,"ele":"849","operator":null,"wikipedia":null,"wikidata":null,"description":null,"wheelchair":null,"osmType":"node","osmId":319588230,"elevation":"849"}},{"type":"Feature","geometry":{"type":"Point","coordinates":[125.16634,6.3041]},"properties":{"name":"Bato Peak","country":"Philippines","website":null,"opening_hours":null,"capacity":null,"phone":null,"address":null,"ele":"940","operator":null,"wikipedia":null,"wikidata":null,"description":null,"wheelchair":null,"osmType":"node","osmId":319588231,"elevation":"940"}},{"type":"Feature","geometry":{"type":"Point","coordinates":[121.51326,14.07555]},"properties":{"name":"Banahao De Lucban","country":"Philippines","website":null,"opening_hours":null,"capacity":null,"phone":null,"address":null,"ele":"1875","operator":null,"wikipedia":null,"wikidata":null,"description":null,"wheelchair":null,"osmType":"node","osmId":319588233,"elevation":"1875","type":"stratovolcano"}},{"type":"Feature","geometry":{"type":"Point","coordinates":[120.73333,15.78333]},"properties":{"name":"Bangcay","country":"Philippines","website":null,"opening_hours":null,"capacity":null,"phone":null,"address":null,"ele":"406","operator":null,"wikipedia":null,"wikidata":null,"description":null,"wheelchair":null,"osmType":"node","osmId":319588234,"elevation":"406"}},{"type":"Feature","geometry":{"type":"Point","coordinates":[122.07635,12.95132]},"properties":{"name":"Mount Ampongo","country":"Philippines","website":null,"opening_hours":null,"capacity":null,"phone":null,"address":null,"ele":"596","operator":null,"wikipedia":null,"wikidata":null,"description":null,"wheelchair":null,"osmType":"node","osmId":319588235,"elevation":"596"}},{"type":"Feature","geometry":{"type":"Point","coordinates":[124.48039,11.43314]},"properties":{"name":"Baonao","country":"Philippines","website":null,"opening_hours":null,"capacity":null,"phone":null,"address":null,"ele":"485","operator":null,"wikipedia":null,"wikidata":null,"description":null,"wheelchair":null,"osmType":"node","osmId":319588236,"elevation":"485"}},{"type":"Feature","geometry":{"type":"Point","coordinates":[125.14748,6.24668]},"properties":{"name":"Base Peak","country":"Philippines","website":null,"opening_hours":null,"capacity":null,"phone":null,"address":null,"ele":"606","operator":null,"wikipedia":null,"wikidata":null,"description":null,"wheelchair":null,"osmType":"node","osmId":319588237,"elevation":"606"}},{"type":"Feature","geometry":{"type":"Point","coordinates":[122.06667,6.55]},"properties":{"name":"Basilan","country":"Philippines","website":null,"opening_hours":null,"capacity":null,"phone":null,"address":null,"ele":"971","operator":null,"wikipedia":null,"wikidata":null,"description":null,"wheelchair":null,"osmType":"node","osmId":319588238,"elevation":"971"}},{"type":"Feature","geometry":{"type":"Point","coordinates":[123.18333,7.48333]},"properties":{"name":"Batelian","country":"Philippines","website":null,"opening_hours":null,"capacity":null,"phone":null,"address":null,"ele":"86","operator":null,"wikipedia":null,"wikidata":null,"description":null,"wheelchair":null,"osmType":"node","osmId":319588239,"elevation":"86"}},{"type":"Feature","geometry":{"type":"Point","coordinates":[123.95,12.83333]},"properties":{"name":"Mount Batuan","country":"Philippines","website":null,"opening_hours":null,"capacity":null,"phone":null,"address":null,"ele":null,"operator":null,"wikipedia":null,"wikidata":null,"description":null,"wheelchair":null,"osmType":"node","osmId":319588240}},{"type":"Feature","geometry":{"type":"Point","coordinates":[120.79084,14.04914]},"properties":{"name":"Toong","country":"Philippines","website":null,"opening_hours":null,"capacity":null,"phone":null,"address":null,"ele":"693","operator":null,"wikipedia":null,"wikidata":null,"description":null,"wheelchair":null,"osmType":"node","osmId":319588242,"elevation":"693"}},{"type":"Feature","geometry":{"type":"Point","coordinates":[124.09681,7.78642]},"properties":{"name":"Mount Baya","country":"Philippines","website":null,"opening_hours":null,"capacity":null,"phone":null,"address":null,"ele":"1380","operator":null,"wikipedia":null,"wikidata":null,"description":null,"wheelchair":null,"osmType":"node","osmId":319588243,"elevation":"1380"}},{"type":"Feature","geometry":{"type":"Point","coordinates":[125.38779,6.15387]},"properties":{"name":"Bee Hive Peak","country":"Philippines","website":null,"opening_hours":null,"capacity":null,"phone":null,"address":null,"ele":"808","operator":null,"wikipedia":null,"wikidata":null,"description":null,"wheelchair":null,"osmType":"node","osmId":319588245,"elevation":"808"}},{"type":"Feature","geometry":{"type":"Point","coordinates":[123.28393,7.85234]},"properties":{"name":"Bigong","country":"Philippines","website":null,"opening_hours":null,"capacity":null,"phone":null,"address":null,"ele":"770","operator":null,"wikipedia":null,"wikidata":null,"description":null,"wheelchair":null,"osmType":"node","osmId":319588247,"elevation":"770"}},{"type":"Feature","geometry":{"type":"Point","coordinates":[124.01695,6.94948]},"properties":{"name":"Mount Binaca","country":"Philippines","website":null,"opening_hours":null,"capacity":null,"phone":null,"address":null,"ele":"1004","operator":null,"wikipedia":null,"wikidata":null,"description":null,"wheelchair":null,"osmType":"node","osmId":319588248,"elevation":"1004"}},{"type":"Feature","geometry":{"type":"Point","coordinates":[124,12.61667]},"properties":{"name":"Binitacan","country":"Philippines","website":null,"opening_hours":null,"capacity":null,"phone":null,"address":null,"ele":"0","operator":null,"wikipedia":null,"wikidata":null,"description":null,"wheelchair":null,"osmType":"node","osmId":319588249,"elevation":"0"}},{"type":"Feature","geometry":{"type":"Point","coordinates":[121.09396,17.30598]},"properties":{"name":"Binuluan","country":"Philippines","website":null,"opening_hours":null,"capacity":null,"phone":null,"address":null,"ele":"2329","operator":null,"wikipedia":"en:Mount Binuluan","wikidata":"Q456607","description":null,"wheelchair":null,"osmType":"node","osmId":319588250,"elevation":"2329"}},{"type":"Feature","geometry":{"type":"Point","coordinates":[124.27963,7.50017]},"properties":{"name":"Mount Bita","country":"Philippines","website":null,"opening_hours":null,"capacity":null,"phone":null,"address":null,"ele":"1055","operator":null,"wikipedia":null,"wikidata":"Q31500968","description":null,"wheelchair":null,"osmType":"node","osmId":319588254,"elevation":"1055"}},{"type":"Feature","geometry":{"type":"Point","coordinates":[124.21488,6.95823]},"properties":{"name":"Mount Blik","country":"Philippines","website":null,"opening_hours":null,"capacity":null,"phone":null,"address":null,"ele":"1198","operator":null,"wikipedia":null,"wikidata":null,"description":null,"wheelchair":null,"osmType":"node","osmId":319588255,"elevation":"1198"}},{"type":"Feature","geometry":{"type":"Point","coordinates":[125.13412,6.8917]},"properties":{"name":null,"country":"Philippines","website":null,"opening_hours":null,"capacity":null,"phone":null,"address":null,"ele":"970","operator":null,"wikipedia":null,"wikidata":null,"description":null,"wheelchair":null,"osmType":"node","osmId":319588258,"elevation":"970"}},{"type":"Feature","geometry":{"type":"Point","coordinates":[125.12866,6.86888]},"properties":{"name":"Mount Gap","country":"Philippines","website":null,"opening_hours":null,"capacity":null,"phone":null,"address":null,"ele":"1070","operator":null,"wikipedia":null,"wikidata":null,"description":null,"wheelchair":null,"osmType":"node","osmId":319588259,"elevation":"1070"}},{"type":"Feature","geometry":{"type":"Point","coordinates":[125.13445,6.84124]},"properties":{"name":null,"country":"Philippines","website":null,"opening_hours":null,"capacity":null,"phone":null,"address":null,"ele":"580","operator":null,"wikipedia":null,"wikidata":null,"description":null,"wheelchair":null,"osmType":"node","osmId":319588261,"elevation":"580"}},{"type":"Feature","geometry":{"type":"Point","coordinates":[125.11334,6.89388]},"properties":{"name":null,"country":"Philippines","website":null,"opening_hours":null,"capacity":null,"phone":null,"address":null,"ele":"800","operator":null,"wikipedia":null,"wikidata":null,"description":null,"wheelchair":null,"osmType":"node","osmId":319588262,"elevation":"800"}},{"type":"Feature","geometry":{"type":"Point","coordinates":[125.11369,6.88127]},"properties":{"name":"Mount Libadan","country":"Philippines","website":null,"opening_hours":null,"capacity":null,"phone":null,"address":null,"ele":"790","operator":null,"wikipedia":null,"wikidata":null,"description":null,"wheelchair":null,"osmType":"node","osmId":319588263,"elevation":"790"}},{"type":"Feature","geometry":{"type":"Point","coordinates":[125.09925,6.88283]},"properties":{"name":null,"country":"Philippines","website":null,"opening_hours":null,"capacity":null,"phone":null,"address":null,"ele":"770","operator":null,"wikipedia":null,"wikidata":null,"description":null,"wheelchair":null,"osmType":"node","osmId":319588264,"elevation":"770"}},{"type":"Feature","geometry":{"type":"Point","coordinates":[125.08429,6.9161]},"properties":{"name":null,"country":"Philippines","website":null,"opening_hours":null,"capacity":null,"phone":null,"address":null,"ele":"660","operator":null,"wikipedia":null,"wikidata":null,"description":null,"wheelchair":null,"osmType":"node","osmId":319588265,"elevation":"660"}},{"type":"Feature","geometry":{"type":"Point","coordinates":[125.06844,6.87145]},"properties":{"name":null,"country":"Philippines","website":null,"opening_hours":null,"capacity":null,"phone":null,"address":null,"ele":"430","operator":null,"wikipedia":null,"wikidata":null,"description":null,"wheelchair":null,"osmType":"node","osmId":319588266,"elevation":"430"}},{"type":"Feature","geometry":{"type":"Point","coordinates":[125.07766,6.85085]},"properties":{"name":null,"country":"Philippines","website":null,"opening_hours":null,"capacity":null,"phone":null,"address":null,"ele":"490","operator":null,"wikipedia":null,"wikidata":null,"description":null,"wheelchair":null,"osmType":"node","osmId":319588267,"elevation":"490"}},{"type":"Feature","geometry":{"type":"Point","coordinates":[125.10145,6.85854]},"properties":{"name":null,"country":"Philippines","website":null,"opening_hours":null,"capacity":null,"phone":null,"address":null,"ele":"760","operator":null,"wikipedia":null,"wikidata":null,"description":null,"wheelchair":null,"osmType":"node","osmId":319588268,"elevation":"760"}},{"type":"Feature","geometry":{"type":"Point","coordinates":[125.11079,6.83723]},"properties":{"name":null,"country":"Philippines","website":null,"opening_hours":null,"capacity":null,"phone":null,"address":null,"ele":"580","operator":null,"wikipedia":null,"wikidata":null,"description":null,"wheelchair":null,"osmType":"node","osmId":319588269,"elevation":"580"}},{"type":"Feature","geometry":{"type":"Point","coordinates":[125.10102,6.83201]},"properties":{"name":null,"country":"Philippines","website":null,"opening_hours":null,"capacity":null,"phone":null,"address":null,"ele":"590","operator":null,"wikipedia":null,"wikidata":null,"description":null,"wheelchair":null,"osmType":"node","osmId":319588270,"elevation":"590"}},{"type":"Feature","geometry":{"type":"Point","coordinates":[125.10723,6.81303]},"properties":{"name":null,"country":"Philippines","website":null,"opening_hours":null,"capacity":null,"phone":null,"address":null,"ele":"510","operator":null,"wikipedia":null,"wikidata":null,"description":null,"wheelchair":null,"osmType":"node","osmId":319588271,"elevation":"510"}},{"type":"Feature","geometry":{"type":"Point","coordinates":[125.10656,6.80626]},"properties":{"name":null,"country":"Philippines","website":null,"opening_hours":null,"capacity":null,"phone":null,"address":null,"ele":"440","operator":null,"wikipedia":null,"wikidata":null,"description":null,"wheelchair":null,"osmType":"node","osmId":319588272,"elevation":"440"}},{"type":"Feature","geometry":{"type":"Point","coordinates":[125.10268,6.7953]},"properties":{"name":null,"country":"Philippines","website":null,"opening_hours":null,"capacity":null,"phone":null,"address":null,"ele":"310","operator":null,"wikipedia":null,"wikidata":null,"description":null,"wheelchair":null,"osmType":"node","osmId":319588273,"elevation":"310"}},{"type":"Feature","geometry":{"type":"Point","coordinates":[123.16667,9.16667]},"properties":{"name":"Bontes","country":"Philippines","website":null,"opening_hours":null,"capacity":null,"phone":null,"address":null,"ele":null,"operator":null,"wikipedia":null,"wikidata":null,"description":null,"wheelchair":null,"osmType":"node","osmId":319588286}},{"type":"Feature","geometry":{"type":"Point","coordinates":[124.68333,6.11861]},"properties":{"name":"Mount Busa","country":"Philippines","website":null,"opening_hours":null,"capacity":null,"phone":null,"address":null,"ele":"2083","operator":null,"wikipedia":null,"wikidata":null,"description":null,"wheelchair":null,"osmType":"node","osmId":319588288,"elevation":"2083"}},{"type":"Feature","geometry":{"type":"Point","coordinates":[123.8733,8.07752]},"properties":{"name":"Mount Bucas","country":"Philippines","website":null,"opening_hours":null,"capacity":null,"phone":null,"address":null,"ele":"450","operator":null,"wikipedia":null,"wikidata":null,"description":null,"wheelchair":null,"osmType":"node","osmId":319588289,"elevation":"450"}},{"type":"Feature","geometry":{"type":"Point","coordinates":[121.82304,6.15021]},"properties":{"name":"Mount Bucutua","country":"Philippines","website":null,"opening_hours":null,"capacity":null,"phone":null,"address":null,"ele":"89","operator":null,"wikipedia":null,"wikidata":null,"description":null,"wheelchair":null,"osmType":"node","osmId":319588294,"elevation":"89"}},{"type":"Feature","geometry":{"type":"Point","coordinates":[121.2286,14.10355]},"properties":{"name":"Bulalo","country":"Philippines","website":null,"opening_hours":null,"capacity":null,"phone":null,"address":null,"ele":"525","operator":null,"wikipedia":null,"wikidata":null,"description":null,"wheelchair":null,"osmType":"node","osmId":319588297,"elevation":"525"}},{"type":"Feature","geometry":{"type":"Point","coordinates":[121.8342,6.13406]},"properties":{"name":"Mount Bulan","country":"Philippines","website":null,"opening_hours":null,"capacity":null,"phone":null,"address":null,"ele":"329","operator":null,"wikipedia":null,"wikidata":"Q31500004","description":null,"wheelchair":null,"osmType":"node","osmId":319588298,"elevation":"329"}},{"type":"Feature","geometry":{"type":"Point","coordinates":[120.86873,15.82289]},"properties":{"name":"Burgos","country":"Philippines","website":null,"opening_hours":null,"capacity":null,"phone":null,"address":null,"ele":"130","operator":null,"wikipedia":null,"wikidata":null,"description":null,"wheelchair":null,"osmType":"node","osmId":319588300,"elevation":"130"}},{"type":"Feature","geometry":{"type":"Point","coordinates":[120.33333,15.7]},"properties":{"name":"Cabaluyan","country":"Philippines","website":null,"opening_hours":null,"capacity":null,"phone":null,"address":null,"ele":"285","operator":null,"wikipedia":null,"wikidata":null,"description":null,"wheelchair":null,"osmType":"node","osmId":319588303,"elevation":"285"}},{"type":"Feature","geometry":{"type":"Point","coordinates":[124.22806,7.53972]},"properties":{"name":"Mount Cabugao","country":"Philippines","website":null,"opening_hours":null,"capacity":null,"phone":null,"address":null,"ele":"812","operator":null,"wikipedia":null,"wikidata":null,"description":null,"wheelchair":null,"osmType":"node","osmId":319588304,"elevation":"812"}},{"type":"Feature","geometry":{"type":"Point","coordinates":[120.32251,15.69713]},"properties":{"name":"Mount Poclis","country":"Philippines","website":null,"opening_hours":null,"capacity":null,"phone":null,"address":null,"ele":"280","operator":null,"wikipedia":null,"wikidata":null,"description":null,"wheelchair":null,"osmType":"node","osmId":319588306,"elevation":"280"}},{"type":"Feature","geometry":{"type":"Point","coordinates":[125.11794,8.57035]},"properties":{"name":"Mount Calabugao","country":"Philippines","website":null,"opening_hours":null,"capacity":null,"phone":null,"address":null,"ele":"1864","operator":null,"wikipedia":null,"wikidata":null,"description":null,"wheelchair":null,"osmType":"node","osmId":319588308,"elevation":"1864"}},{"type":"Feature","geometry":{"type":"Point","coordinates":[121.46667,19.31667]},"properties":{"name":"Calayan","country":"Philippines","website":null,"opening_hours":null,"capacity":null,"phone":null,"address":null,"ele":"499","operator":null,"wikipedia":null,"wikidata":null,"description":null,"wheelchair":null,"osmType":"node","osmId":319588309,"elevation":"499"}},{"type":"Feature","geometry":{"type":"Point","coordinates":[124.5209,11.61704]},"properties":{"name":"Mount Camalobagoan (Asluman)","country":"Philippines","website":null,"opening_hours":null,"capacity":null,"phone":null,"address":null,"ele":"1048","operator":null,"wikipedia":null,"wikidata":"Q31498438","description":null,"wheelchair":null,"osmType":"node","osmId":319588310,"elevation":"1048"}},{"type":"Feature","geometry":{"type":"Point","coordinates":[124.70915,9.20945]},"properties":{"name":"Mount Campana","country":"Philippines","website":null,"opening_hours":null,"capacity":null,"phone":null,"address":null,"ele":"650","operator":null,"wikipedia":null,"wikidata":null,"description":null,"wheelchair":null,"osmType":"node","osmId":319588311,"elevation":"650"}},{"type":"Feature","geometry":{"type":"Point","coordinates":[124.42323,11.97364]},"properties":{"name":"Camandag","country":"Philippines","website":null,"opening_hours":null,"capacity":null,"phone":null,"address":null,"ele":"432","operator":null,"wikipedia":null,"wikidata":null,"description":null,"wheelchair":null,"osmType":"node","osmId":319588312,"elevation":"432"}},{"type":"Feature","geometry":{"type":"Point","coordinates":[125.21667,10.3]},"properties":{"name":"Cantoloc","country":"Philippines","website":null,"opening_hours":null,"capacity":null,"phone":null,"address":null,"ele":"820","operator":null,"wikipedia":null,"wikidata":null,"description":null,"wheelchair":null,"osmType":"node","osmId":319588314,"elevation":"820"}},{"type":"Feature","geometry":{"type":"Point","coordinates":[124.49243,11.60144]},"properties":{"name":"Mt. Capinyayan","country":"Philippines","website":null,"opening_hours":null,"capacity":null,"phone":null,"address":null,"ele":"980","operator":null,"wikipedia":null,"wikidata":null,"description":null,"wheelchair":null,"osmType":"node","osmId":319588315,"elevation":"980"}},{"type":"Feature","geometry":{"type":"Point","coordinates":[124.66991,9.21553]},"properties":{"name":"Mount Carling","country":"Philippines","website":null,"opening_hours":null,"capacity":null,"phone":null,"address":null,"ele":"795","operator":null,"wikipedia":null,"wikidata":null,"description":null,"wheelchair":null,"osmType":"node","osmId":319588320,"elevation":"795"}},{"type":"Feature","geometry":{"type":"Point","coordinates":[121.89084,13.0273]},"properties":{"name":"Carlota","country":"Philippines","website":null,"opening_hours":null,"capacity":null,"phone":null,"address":null,"ele":"49","operator":null,"wikipedia":null,"wikidata":null,"description":null,"wheelchair":null,"osmType":"node","osmId":319588321,"elevation":"49"}},{"type":"Feature","geometry":{"type":"Point","coordinates":[123.88003,8.04667]},"properties":{"name":"Mount Catmon","country":"Philippines","website":null,"opening_hours":null,"capacity":null,"phone":null,"address":null,"ele":"550","operator":null,"wikipedia":null,"wikidata":"Q31497136","description":null,"wheelchair":null,"osmType":"node","osmId":319588322,"elevation":"550"}},{"type":"Feature","geometry":{"type":"Point","coordinates":[120.33333,15.70833]},"properties":{"name":"Cgndong","country":"Philippines","website":null,"opening_hours":null,"capacity":null,"phone":null,"address":null,"ele":"164","operator":null,"wikipedia":null,"wikidata":null,"description":null,"wheelchair":null,"osmType":"node","osmId":319588323,"elevation":"164"}},{"type":"Feature","geometry":{"type":"Point","coordinates":[121.20255,10.88108]},"properties":{"name":"Cocoro","country":"Philippines","website":null,"opening_hours":null,"capacity":null,"phone":null,"address":null,"ele":"95","operator":null,"wikipedia":null,"wikidata":null,"description":null,"wheelchair":null,"osmType":"node","osmId":319588324,"elevation":"95"}},{"type":"Feature","geometry":{"type":"Point","coordinates":[123.99002,12.60311]},"properties":{"name":"Mount Calomutan","country":"Philippines","website":null,"opening_hours":null,"capacity":null,"phone":null,"address":null,"ele":"570","operator":null,"wikipedia":null,"wikidata":null,"description":null,"wheelchair":null,"osmType":"node","osmId":319588325,"elevation":"570"}},{"type":"Feature","geometry":{"type":"Point","coordinates":[123.01684,13.91296]},"properties":{"name":"Mount Colasi","country":"Philippines","website":null,"opening_hours":null,"capacity":null,"phone":null,"address":null,"ele":"959","operator":null,"wikipedia":null,"wikidata":null,"description":null,"wheelchair":null,"osmType":"node","osmId":319588326,"elevation":"959"}},{"type":"Feature","geometry":{"type":"Point","coordinates":[124.31667,11.93333]},"properties":{"name":"Costa Rica","country":"Philippines","website":null,"opening_hours":null,"capacity":null,"phone":null,"address":null,"ele":"394","operator":null,"wikipedia":null,"wikidata":null,"description":null,"wheelchair":null,"osmType":"node","osmId":319588327,"elevation":"394"}},{"type":"Feature","geometry":{"type":"Point","coordinates":[123.93333,12.7]},"properties":{"name":"Culangalan","country":"Philippines","website":null,"opening_hours":null,"capacity":null,"phone":null,"address":null,"ele":"360","operator":null,"wikipedia":null,"wikidata":null,"description":null,"wheelchair":null,"osmType":"node","osmId":319588328,"elevation":"360"}},{"type":"Feature","geometry":{"type":"Point","coordinates":[123.08845,13.89429]},"properties":{"name":"Colasi Peak","country":"Philippines","website":null,"opening_hours":null,"capacity":null,"phone":null,"address":null,"ele":"387","operator":null,"wikipedia":null,"wikidata":null,"description":null,"wheelchair":null,"osmType":"node","osmId":319588329,"elevation":"387"}},{"type":"Feature","geometry":{"type":"Point","coordinates":[120.66404,15.79745]},"properties":{"name":"Mount Cuyapo","country":"Philippines","website":null,"opening_hours":null,"capacity":null,"phone":null,"address":null,"ele":"240","operator":null,"wikipedia":null,"wikidata":"Q31495597","description":null,"wheelchair":null,"osmType":"node","osmId":319588330,"elevation":"240"}},{"type":"Feature","geometry":{"type":"Point","coordinates":[124.12917,7.64083]},"properties":{"name":"Dos Hermanas","country":"Philippines","website":null,"opening_hours":null,"capacity":null,"phone":null,"address":null,"ele":"814","operator":null,"wikipedia":null,"wikidata":null,"description":null,"wheelchair":null,"osmType":"node","osmId":319588340,"elevation":"814"}},{"type":"Feature","geometry":{"type":"Point","coordinates":[121.51427,13.10909]},"properties":{"name":"Mount Dumali","country":"Philippines","website":null,"opening_hours":null,"capacity":null,"phone":null,"address":null,"ele":"756","operator":null,"wikipedia":null,"wikidata":null,"description":null,"wheelchair":null,"osmType":"node","osmId":319588341,"elevation":"756"}},{"type":"Feature","geometry":{"type":"Point","coordinates":[124.07951,7.77791]},"properties":{"name":"Mount Gadungan","country":"Philippines","website":null,"opening_hours":null,"capacity":null,"phone":null,"address":null,"ele":"1342","operator":null,"wikipedia":null,"wikidata":null,"description":null,"wheelchair":null,"osmType":"node","osmId":319588343,"elevation":"1342"}},{"type":"Feature","geometry":{"type":"Point","coordinates":[124.00963,7.88847]},"properties":{"name":"Galantay","country":"Philippines","website":null,"opening_hours":null,"capacity":null,"phone":null,"address":null,"ele":"1274","operator":null,"wikipedia":null,"wikidata":null,"description":null,"wheelchair":null,"osmType":"node","osmId":319588344,"elevation":"1274"}},{"type":"Feature","geometry":{"type":"Point","coordinates":[124.03333,12.6]},"properties":{"name":"Gate Mountains","country":"Philippines","website":null,"opening_hours":null,"capacity":null,"phone":null,"address":null,"ele":"559","operator":null,"wikipedia":null,"wikidata":null,"description":null,"wheelchair":null,"osmType":"node","osmId":319588346,"elevation":"559"}},{"type":"Feature","geometry":{"type":"Point","coordinates":[124.51609,11.42782]},"properties":{"name":"Mt. Gayad","country":"Philippines","website":null,"opening_hours":null,"capacity":null,"phone":null,"address":null,"ele":"618","operator":null,"wikipedia":null,"wikidata":null,"description":null,"wheelchair":null,"osmType":"node","osmId":319588347,"elevation":"618"}},{"type":"Feature","geometry":{"type":"Point","coordinates":[124.489,11.60289]},"properties":{"name":"Mount Gumansan","country":"Philippines","website":null,"opening_hours":null,"capacity":null,"phone":null,"address":null,"ele":"1045","operator":null,"wikipedia":null,"wikidata":"Q31492148","description":null,"wheelchair":null,"osmType":"node","osmId":320129442,"elevation":"1045"}},{"type":"Feature","geometry":{"type":"Point","coordinates":[124.11183,7.90748]},"properties":{"name":"Mount Gurain","country":"Philippines","website":null,"opening_hours":null,"capacity":null,"phone":null,"address":null,"ele":"1840","operator":null,"wikipedia":null,"wikidata":null,"description":null,"wheelchair":null,"osmType":"node","osmId":320129443,"elevation":"1840","type":"stratovolcano"}},{"type":"Feature","geometry":{"type":"Point","coordinates":[123.96535,12.77558]},"properties":{"name":"Mount Homahan","country":"Philippines","website":null,"opening_hours":null,"capacity":null,"phone":null,"address":null,"ele":"464","operator":null,"wikipedia":null,"wikidata":null,"description":null,"wheelchair":null,"osmType":"node","osmId":320129444,"elevation":"464"}},{"type":"Feature","geometry":{"type":"Point","coordinates":[124.11667,12.76667]},"properties":{"name":"Irosin Caldera","country":"Philippines","website":null,"opening_hours":null,"capacity":null,"phone":null,"address":null,"ele":"0","operator":null,"wikipedia":null,"wikidata":null,"description":null,"wheelchair":null,"osmType":"node","osmId":320129449,"elevation":"0"}},{"type":"Feature","geometry":{"type":"Point","coordinates":[121.92861,13.0224]},"properties":{"name":"Isabel","country":"Philippines","website":null,"opening_hours":null,"capacity":null,"phone":null,"address":null,"ele":"72","operator":null,"wikipedia":null,"wikidata":null,"description":null,"wheelchair":null,"osmType":"node","osmId":320129450,"elevation":"72"}},{"type":"Feature","geometry":{"type":"Point","coordinates":[124.71726,11.09919]},"properties":{"name":"Janagdan","country":"Philippines","website":null,"opening_hours":null,"capacity":null,"phone":null,"address":null,"ele":"1200","operator":null,"wikipedia":null,"wikidata":null,"description":null,"wheelchair":null,"osmType":"node","osmId":320129451,"elevation":"1200"}},{"type":"Feature","geometry":{"type":"Point","coordinates":[124.00171,12.75819]},"properties":{"name":"Mount Jormajam","country":"Philippines","website":null,"opening_hours":null,"capacity":null,"phone":null,"address":null,"ele":"738","operator":null,"wikipedia":null,"wikidata":null,"description":null,"wheelchair":null,"osmType":"node","osmId":320129452,"elevation":"738"}},{"type":"Feature","geometry":{"type":"Point","coordinates":[123.93384,12.7976]},"properties":{"name":"Juban","country":"Philippines","website":null,"opening_hours":null,"capacity":null,"phone":null,"address":null,"ele":"844","operator":null,"wikipedia":null,"wikidata":null,"description":null,"wheelchair":null,"osmType":"node","osmId":320129453,"elevation":"844"}},{"type":"Feature","geometry":{"type":"Point","coordinates":[124.69336,7.82727]},"properties":{"name":"Mount Kibaritan","country":"Philippines","website":null,"opening_hours":null,"capacity":null,"phone":null,"address":null,"ele":"1220","operator":null,"wikipedia":null,"wikidata":null,"description":null,"wheelchair":null,"osmType":"node","osmId":320129456,"elevation":"1220"}},{"type":"Feature","geometry":{"type":"Point","coordinates":[124.82596,7.76432]},"properties":{"name":"Mount Kidangin","country":"Philippines","website":null,"opening_hours":null,"capacity":null,"phone":null,"address":null,"ele":"1144","operator":null,"wikipedia":null,"wikidata":null,"description":null,"wheelchair":null,"osmType":"node","osmId":320129459,"elevation":"1144"}},{"type":"Feature","geometry":{"type":"Point","coordinates":[124.36708,11.94109]},"properties":{"name":"Kirikite","country":"Philippines","website":null,"opening_hours":null,"capacity":null,"phone":null,"address":null,"ele":"202","operator":null,"wikipedia":null,"wikidata":null,"description":null,"wheelchair":null,"osmType":"node","osmId":320129461,"elevation":"202"}},{"type":"Feature","geometry":{"type":"Point","coordinates":[124.87754,7.95645]},"properties":{"name":"Mount Kilakiron","country":"Philippines","website":null,"opening_hours":null,"capacity":null,"phone":null,"address":null,"ele":"2329","operator":null,"wikipedia":null,"wikidata":null,"description":null,"wheelchair":null,"osmType":"node","osmId":320129462,"elevation":"2329"}},{"type":"Feature","geometry":{"type":"Point","coordinates":[124.66265,7.33728]},"properties":{"name":"Mount Kitubod","country":"Philippines","website":null,"opening_hours":null,"capacity":null,"phone":null,"address":null,"ele":"980","operator":null,"wikipedia":null,"wikidata":null,"description":null,"wheelchair":null,"osmType":"node","osmId":320129464,"elevation":"980"}},{"type":"Feature","geometry":{"type":"Point","coordinates":[121.16429,14.14913]},"properties":{"name":"La Mesa","country":"Philippines","website":null,"opening_hours":null,"capacity":null,"phone":null,"address":null,"ele":"136","operator":null,"wikipedia":null,"wikidata":null,"description":null,"wheelchair":null,"osmType":"node","osmId":320129465,"elevation":"136"}},{"type":"Feature","geometry":{"type":"Point","coordinates":[121.2456,14.1094]},"properties":{"name":"Mount Mabilog","country":"Philippines","website":null,"opening_hours":null,"capacity":null,"phone":null,"address":null,"ele":"200","operator":null,"wikipedia":null,"wikidata":null,"description":null,"wheelchair":null,"osmType":"node","osmId":320129471,"elevation":"200"}},{"type":"Feature","geometry":{"type":"Point","coordinates":[121.2808,14.09866]},"properties":{"name":"Mount Mapula","country":"Philippines","website":null,"opening_hours":null,"capacity":null,"phone":null,"address":null,"ele":"209","operator":null,"wikipedia":null,"wikidata":"Q30493492","description":null,"wheelchair":null,"osmType":"node","osmId":320129472,"elevation":"209"}},{"type":"Feature","geometry":{"type":"Point","coordinates":[121.26155,14.03586]},"properties":{"name":"Palindan Hill","country":"Philippines","website":null,"opening_hours":null,"capacity":null,"phone":null,"address":null,"ele":"260","operator":null,"wikipedia":null,"wikidata":null,"description":null,"wheelchair":null,"osmType":"node","osmId":320129473,"elevation":"260"}},{"type":"Feature","geometry":{"type":"Point","coordinates":[121.26124,14.03584]},"properties":{"name":"Tanza Hill","country":"Philippines","website":null,"opening_hours":null,"capacity":null,"phone":null,"address":null,"ele":"260","operator":null,"wikipedia":null,"wikidata":null,"description":null,"wheelchair":null,"osmType":"node","osmId":320129477,"elevation":"260"}},{"type":"Feature","geometry":{"type":"Point","coordinates":[121.24212,14.08004]},"properties":{"name":"Mount Tamlong","country":"Philippines","website":null,"opening_hours":null,"capacity":null,"phone":null,"address":null,"ele":"249","operator":null,"wikipedia":null,"wikidata":null,"description":null,"wheelchair":null,"osmType":"node","osmId":320129478,"elevation":"249"}},{"type":"Feature","geometry":{"type":"Point","coordinates":[121.24339,14.09663]},"properties":{"name":"Mount Buboy","country":"Philippines","website":null,"opening_hours":null,"capacity":null,"phone":null,"address":null,"ele":"215","operator":null,"wikipedia":null,"wikidata":null,"description":null,"wheelchair":null,"osmType":"node","osmId":320129479,"elevation":"215"}},{"type":"Feature","geometry":{"type":"Point","coordinates":[121.21405,14.0778]},"properties":{"name":"Mount Olilia","country":"Philippines","website":null,"opening_hours":null,"capacity":null,"phone":null,"address":null,"ele":"376","operator":null,"wikipedia":null,"wikidata":null,"description":null,"wheelchair":null,"osmType":"node","osmId":320129484,"elevation":"376"}},{"type":"Feature","geometry":{"type":"Point","coordinates":[121.24255,14.11292]},"properties":{"name":"Mount Luyong","country":"Philippines","website":null,"opening_hours":null,"capacity":null,"phone":null,"address":null,"ele":"318","operator":null,"wikipedia":null,"wikidata":null,"description":null,"wheelchair":null,"osmType":"node","osmId":320129485,"elevation":"318"}},{"type":"Feature","geometry":{"type":"Point","coordinates":[121.29757,14.09894]},"properties":{"name":null,"country":"Philippines","website":null,"opening_hours":null,"capacity":null,"phone":null,"address":null,"ele":null,"operator":null,"wikipedia":null,"wikidata":null,"description":null,"wheelchair":null,"osmType":"node","osmId":320129490}},{"type":"Feature","geometry":{"type":"Point","coordinates":[123.83,7.93671]},"properties":{"name":"Mount Kabanangan","country":"Philippines","website":null,"opening_hours":null,"capacity":null,"phone":null,"address":null,"ele":"330","operator":null,"wikipedia":null,"wikidata":null,"description":null,"wheelchair":null,"osmType":"node","osmId":320129494,"elevation":"330"}},{"type":"Feature","geometry":{"type":"Point","coordinates":[123.81339,7.93257]},"properties":{"name":"Pindulungan Hill","country":"Philippines","website":null,"opening_hours":null,"capacity":null,"phone":null,"address":null,"ele":"110","operator":null,"wikipedia":null,"wikidata":null,"description":null,"wheelchair":null,"osmType":"node","osmId":320129496,"elevation":"110"}},{"type":"Feature","geometry":{"type":"Point","coordinates":[123.80836,7.9718]},"properties":{"name":"Lauan Hill","country":"Philippines","website":null,"opening_hours":null,"capacity":null,"phone":null,"address":null,"ele":"64","operator":null,"wikipedia":null,"wikidata":null,"description":null,"wheelchair":null,"osmType":"node","osmId":320129497,"elevation":"64"}},{"type":"Feature","geometry":{"type":"Point","coordinates":[123.85246,7.8636]},"properties":{"name":null,"country":"Philippines","website":null,"opening_hours":null,"capacity":null,"phone":null,"address":null,"ele":"220","operator":null,"wikipedia":null,"wikidata":null,"description":null,"wheelchair":null,"osmType":"node","osmId":320129498,"elevation":"220"}},{"type":"Feature","geometry":{"type":"Point","coordinates":[123.81939,7.92101]},"properties":{"name":null,"country":"Philippines","website":null,"opening_hours":null,"capacity":null,"phone":null,"address":null,"ele":"130","operator":null,"wikipedia":null,"wikidata":null,"description":null,"wheelchair":null,"osmType":"node","osmId":320129499,"elevation":"130"}},{"type":"Feature","geometry":{"type":"Point","coordinates":[123.84511,7.93152]},"properties":{"name":null,"country":"Philippines","website":null,"opening_hours":null,"capacity":null,"phone":null,"address":null,"ele":"270","operator":null,"wikipedia":null,"wikidata":null,"description":null,"wheelchair":null,"osmType":"node","osmId":320129500,"elevation":"270"}},{"type":"Feature","geometry":{"type":"Point","coordinates":[123.8393,7.93832]},"properties":{"name":null,"country":"Philippines","website":null,"opening_hours":null,"capacity":null,"phone":null,"address":null,"ele":"300","operator":null,"wikipedia":null,"wikidata":null,"description":null,"wheelchair":null,"osmType":"node","osmId":320129507,"elevation":"300"}},{"type":"Feature","geometry":{"type":"Point","coordinates":[123.86684,7.95393]},"properties":{"name":null,"country":"Philippines","website":null,"opening_hours":null,"capacity":null,"phone":null,"address":null,"ele":"230","operator":null,"wikipedia":null,"wikidata":null,"description":null,"wheelchair":null,"osmType":"node","osmId":320129516,"elevation":"230"}},{"type":"Feature","geometry":{"type":"Point","coordinates":[123.86072,7.95317]},"properties":{"name":null,"country":"Philippines","website":null,"opening_hours":null,"capacity":null,"phone":null,"address":null,"ele":"180","operator":null,"wikipedia":null,"wikidata":null,"description":null,"wheelchair":null,"osmType":"node","osmId":320129524,"elevation":"180"}},{"type":"Feature","geometry":{"type":"Point","coordinates":[123.86667,7.925]},"properties":{"name":null,"country":"Philippines","website":null,"opening_hours":null,"capacity":null,"phone":null,"address":null,"ele":"120","operator":null,"wikipedia":null,"wikidata":null,"description":null,"wheelchair":null,"osmType":"node","osmId":320129525,"elevation":"120"}},{"type":"Feature","geometry":{"type":"Point","coordinates":[123.85842,7.87244]},"properties":{"name":null,"country":"Philippines","website":null,"opening_hours":null,"capacity":null,"phone":null,"address":null,"ele":"230","operator":null,"wikipedia":null,"wikidata":null,"description":null,"wheelchair":null,"osmType":"node","osmId":320129526,"elevation":"230"}},{"type":"Feature","geometry":{"type":"Point","coordinates":[123.92083,7.9317]},"properties":{"name":null,"country":"Philippines","website":null,"opening_hours":null,"capacity":null,"phone":null,"address":null,"ele":"400","operator":null,"wikipedia":null,"wikidata":null,"description":null,"wheelchair":null,"osmType":"node","osmId":320129527,"elevation":"400"}},{"type":"Feature","geometry":{"type":"Point","coordinates":[123.91037,7.95366]},"properties":{"name":null,"country":"Philippines","website":null,"opening_hours":null,"capacity":null,"phone":null,"address":null,"ele":"470","operator":null,"wikipedia":null,"wikidata":null,"description":null,"wheelchair":null,"osmType":"node","osmId":320129528,"elevation":"470"}},{"type":"Feature","geometry":{"type":"Point","coordinates":[124.43853,7.65458]},"properties":{"name":"Mount Latukan","country":"Philippines","website":null,"opening_hours":null,"capacity":null,"phone":null,"address":null,"ele":"2328","operator":null,"wikipedia":null,"wikidata":null,"description":null,"wheelchair":null,"osmType":"node","osmId":320129529,"elevation":"2328"}},{"type":"Feature","geometry":{"type":"Point","coordinates":[123.87674,7.94827]},"properties":{"name":null,"country":"Philippines","website":null,"opening_hours":null,"capacity":null,"phone":null,"address":null,"ele":"300","operator":null,"wikipedia":null,"wikidata":null,"description":null,"wheelchair":null,"osmType":"node","osmId":320129531,"elevation":"300"}},{"type":"Feature","geometry":{"type":"Point","coordinates":[123.89581,7.89812]},"properties":{"name":null,"country":"Philippines","website":null,"opening_hours":null,"capacity":null,"phone":null,"address":null,"ele":"370","operator":null,"wikipedia":null,"wikidata":null,"description":null,"wheelchair":null,"osmType":"node","osmId":320129534,"elevation":"370"}},{"type":"Feature","geometry":{"type":"Point","coordinates":[123.56241,13.22898]},"properties":{"name":null,"country":"Philippines","website":null,"opening_hours":null,"capacity":null,"phone":null,"address":null,"ele":"274","operator":null,"wikipedia":null,"wikidata":null,"description":null,"wheelchair":null,"osmType":"node","osmId":320129535,"elevation":"274"}},{"type":"Feature","geometry":{"type":"Point","coordinates":[123.55858,13.22586]},"properties":{"name":null,"country":"Philippines","website":null,"opening_hours":null,"capacity":null,"phone":null,"address":null,"ele":"220","operator":null,"wikipedia":null,"wikidata":null,"description":null,"wheelchair":null,"osmType":"node","osmId":320129536,"elevation":"220"}},{"type":"Feature","geometry":{"type":"Point","coordinates":[123.5543,13.22592]},"properties":{"name":null,"country":"Philippines","website":null,"opening_hours":null,"capacity":null,"phone":null,"address":null,"ele":"180","operator":null,"wikipedia":null,"wikidata":null,"description":null,"wheelchair":null,"osmType":"node","osmId":320129537,"elevation":"180"}},{"type":"Feature","geometry":{"type":"Point","coordinates":[123.60337,13.21591]},"properties":{"name":null,"country":"Philippines","website":null,"opening_hours":null,"capacity":null,"phone":null,"address":null,"ele":"235","operator":null,"wikipedia":null,"wikidata":null,"description":null,"wheelchair":null,"osmType":"node","osmId":320129539,"elevation":"235"}},{"type":"Feature","geometry":{"type":"Point","coordinates":[123.59848,13.23005]},"properties":{"name":null,"country":"Philippines","website":null,"opening_hours":null,"capacity":null,"phone":null,"address":null,"ele":"200","operator":null,"wikipedia":null,"wikidata":null,"description":null,"wheelchair":null,"osmType":"node","osmId":320129540,"elevation":"200"}},{"type":"Feature","geometry":{"type":"Point","coordinates":[123.58612,13.22612]},"properties":{"name":null,"country":"Philippines","website":null,"opening_hours":null,"capacity":null,"phone":null,"address":null,"ele":"283","operator":null,"wikipedia":null,"wikidata":null,"description":null,"wheelchair":null,"osmType":"node","osmId":320129541,"elevation":"283"}},{"type":"Feature","geometry":{"type":"Point","coordinates":[123.57741,13.23723]},"properties":{"name":null,"country":"Philippines","website":null,"opening_hours":null,"capacity":null,"phone":null,"address":null,"ele":"219","operator":null,"wikipedia":null,"wikidata":null,"description":null,"wheelchair":null,"osmType":"node","osmId":320129542,"elevation":"219"}},{"type":"Feature","geometry":{"type":"Point","coordinates":[121.29025,13.64884]},"properties":{"name":"Mount Lobo","country":"Philippines","website":null,"opening_hours":null,"capacity":null,"phone":null,"address":null,"ele":"980","operator":null,"wikipedia":null,"wikidata":"Q31487447","description":null,"wheelchair":null,"osmType":"node","osmId":320129543,"elevation":"980"}},{"type":"Feature","geometry":{"type":"Point","coordinates":[120.875,15.78333]},"properties":{"name":"Limlingan","country":"Philippines","website":null,"opening_hours":null,"capacity":null,"phone":null,"address":null,"ele":"135","operator":null,"wikipedia":null,"wikidata":null,"description":null,"wheelchair":null,"osmType":"node","osmId":320129547,"elevation":"135"}},{"type":"Feature","geometry":{"type":"Point","coordinates":[121.18879,13.69918]},"properties":{"name":"Mount Liguayen","country":"Philippines","website":null,"opening_hours":null,"capacity":null,"phone":null,"address":null,"ele":"689","operator":null,"wikipedia":null,"wikidata":null,"description":null,"wheelchair":null,"osmType":"node","osmId":320129548,"elevation":"689"}},{"type":"Feature","geometry":{"type":"Point","coordinates":[121.06106,14.02099]},"properties":{"name":"Lipa Point","country":"Philippines","website":null,"opening_hours":null,"capacity":null,"phone":null,"address":null,"ele":"220","operator":null,"wikipedia":null,"wikidata":null,"description":null,"wheelchair":null,"osmType":"node","osmId":320129549,"elevation":"220"}},{"type":"Feature","geometry":{"type":"Point","coordinates":[121.925,6.31667]},"properties":{"name":"Linawan","country":"Philippines","website":null,"opening_hours":null,"capacity":null,"phone":null,"address":null,"ele":"112","operator":null,"wikipedia":null,"wikidata":null,"description":null,"wheelchair":null,"osmType":"node","osmId":320129550,"elevation":"112"}},{"type":"Feature","geometry":{"type":"Point","coordinates":[121.70521,12.93874]},"properties":{"name":"Maestre de Campo","country":"Philippines","website":null,"opening_hours":null,"capacity":null,"phone":null,"address":null,"ele":"340","operator":null,"wikipedia":null,"wikidata":null,"description":null,"wheelchair":null,"osmType":"node","osmId":320129552,"elevation":"340"}},{"type":"Feature","geometry":{"type":"Point","coordinates":[124.69167,11.025]},"properties":{"name":"Maagonoc","country":"Philippines","website":null,"opening_hours":null,"capacity":null,"phone":null,"address":null,"ele":"680","operator":null,"wikipedia":null,"wikidata":null,"description":null,"wheelchair":null,"osmType":"node","osmId":320129556,"elevation":"680"}},{"type":"Feature","geometry":{"type":"Point","coordinates":[121.39921,14.12693]},"properties":{"name":"Malauban - Lansay","country":"Philippines","website":null,"opening_hours":null,"capacity":null,"phone":null,"address":null,"ele":"319","operator":null,"wikipedia":null,"wikidata":null,"description":null,"wheelchair":null,"osmType":"node","osmId":320129560,"elevation":"319"}},{"type":"Feature","geometry":{"type":"Point","coordinates":[121.88158,18.8583]},"properties":{"name":"Mount Malabsing","country":"Philippines","website":null,"opening_hours":null,"capacity":null,"phone":null,"address":null,"ele":"480","operator":null,"wikipedia":null,"wikidata":"Q31485602","description":null,"wheelchair":null,"osmType":"node","osmId":320129561,"elevation":"480","type":"lava_dome"}},{"type":"Feature","geometry":{"type":"Point","coordinates":[121.19445,14.13522]},"properties":{"name":"Mount Makiling","country":"Philippines","website":null,"opening_hours":null,"capacity":null,"phone":null,"address":null,"ele":"1090","operator":null,"wikipedia":"en:Mount Makiling","wikidata":null,"description":null,"wheelchair":null,"osmType":"node","osmId":320129564,"elevation":"1090"}},{"type":"Feature","geometry":{"type":"Point","coordinates":[120.3,15.71667]},"properties":{"name":"Malabobo","country":"Philippines","website":null,"opening_hours":null,"capacity":null,"phone":null,"address":null,"ele":"329","operator":null,"wikipedia":null,"wikidata":null,"description":null,"wheelchair":null,"osmType":"node","osmId":320129565,"elevation":"329"}},{"type":"Feature","geometry":{"type":"Point","coordinates":[124.71989,9.16318]},"properties":{"name":"Mount Mambajao","country":"Philippines","website":null,"opening_hours":null,"capacity":null,"phone":null,"address":null,"ele":"1568","operator":null,"wikipedia":null,"wikidata":null,"description":null,"wheelchair":null,"osmType":"node","osmId":320129570,"elevation":"1568"}},{"type":"Feature","geometry":{"type":"Point","coordinates":[124.12723,7.9665]},"properties":{"name":"Mt. Mamot","country":"Philippines","website":null,"opening_hours":null,"capacity":null,"phone":null,"address":null,"ele":"1002","operator":null,"wikipedia":null,"wikidata":null,"description":null,"wheelchair":null,"osmType":"node","osmId":320129571,"elevation":"1002"}},{"type":"Feature","geometry":{"type":"Point","coordinates":[123.63642,8.21729]},"properties":{"name":"Mount Malindang","country":"Philippines","website":null,"opening_hours":null,"capacity":null,"phone":null,"address":null,"ele":"2404","operator":null,"wikipedia":null,"wikidata":null,"description":null,"wheelchair":null,"osmType":"node","osmId":320129572,"elevation":"2404"}},{"type":"Feature","geometry":{"type":"Point","coordinates":[124.46179,11.65]},"properties":{"name":"Mount Naliwatan (Tres Marias Peak 3)","country":"Philippines","website":null,"opening_hours":null,"capacity":null,"phone":null,"address":null,"ele":"1346","operator":null,"wikipedia":null,"wikidata":"Q31481995","description":null,"wheelchair":null,"osmType":"node","osmId":320129573,"elevation":"1346"}},{"type":"Feature","geometry":{"type":"Point","coordinates":[122.3,6.53333]},"properties":{"name":"Matanal","country":"Philippines","website":null,"opening_hours":null,"capacity":null,"phone":null,"address":null,"ele":"611","operator":null,"wikipedia":null,"wikidata":null,"description":null,"wheelchair":null,"osmType":"node","osmId":320129577,"elevation":"611"}},{"type":"Feature","geometry":{"type":"Point","coordinates":[123.58332,13.3333]},"properties":{"name":"Masaraga","country":"Philippines","website":null,"opening_hours":null,"capacity":null,"phone":null,"address":null,"ele":"1328","operator":null,"wikipedia":"en:Mount Masaraga","wikidata":null,"description":null,"wheelchair":null,"osmType":"node","osmId":320129578,"elevation":"1328"}},{"type":"Feature","geometry":{"type":"Point","coordinates":[124.59339,7.578]},"properties":{"name":"Mount Mariyug","country":"Philippines","website":null,"opening_hours":null,"capacity":null,"phone":null,"address":null,"ele":"1490","operator":null,"wikipedia":null,"wikidata":null,"description":null,"wheelchair":null,"osmType":"node","osmId":320129579,"elevation":"1490"}},{"type":"Feature","geometry":{"type":"Point","coordinates":[124.15,12.8]},"properties":{"name":"Maraut-banua","country":"Philippines","website":null,"opening_hours":null,"capacity":null,"phone":null,"address":null,"ele":"0","operator":null,"wikipedia":null,"wikidata":null,"description":null,"wheelchair":null,"osmType":"node","osmId":320129581,"elevation":"0"}},{"type":"Feature","geometry":{"type":"Point","coordinates":[122.6,14.08333]},"properties":{"name":"Nalusbitan","country":"Philippines","website":null,"opening_hours":null,"capacity":null,"phone":null,"address":null,"ele":"329","operator":null,"wikipedia":null,"wikidata":null,"description":null,"wheelchair":null,"osmType":"node","osmId":320129585,"elevation":"329"}},{"type":"Feature","geometry":{"type":"Point","coordinates":[123.9,7.725]},"properties":{"name":"Micbacan","country":"Philippines","website":null,"opening_hours":null,"capacity":null,"phone":null,"address":null,"ele":"500","operator":null,"wikipedia":null,"wikidata":null,"description":null,"wheelchair":null,"osmType":"node","osmId":320129588,"elevation":"500"}},{"type":"Feature","geometry":{"type":"Point","coordinates":[121.23834,14.19594]},"properties":{"name":"Mayondon","country":"Philippines","website":null,"opening_hours":null,"capacity":null,"phone":null,"address":null,"ele":"90","operator":null,"wikipedia":null,"wikidata":null,"description":"Cone, part of San Pablo Volcanic Field","wheelchair":null,"osmType":"node","osmId":320129589,"elevation":"90"}},{"type":"Feature","geometry":{"type":"Point","coordinates":[121.14703,11.12078]},"properties":{"name":"Matarawis","country":"Philippines","website":null,"opening_hours":null,"capacity":null,"phone":null,"address":null,"ele":"100","operator":null,"wikipedia":null,"wikidata":null,"description":null,"wheelchair":null,"osmType":"node","osmId":320129591,"elevation":"100"}},{"type":"Feature","geometry":{"type":"Point","coordinates":[125.52057,9.59331]},"properties":{"name":"Mount Paco","country":"Philippines","website":null,"opening_hours":null,"capacity":null,"phone":null,"address":null,"ele":"524","operator":null,"wikipedia":"en:Paco (volcano)","wikidata":"Q1706591","description":null,"wheelchair":null,"osmType":"node","osmId":320129592,"elevation":"524"}},{"type":"Feature","geometry":{"type":"Point","coordinates":[120.65962,14.21406]},"properties":{"name":"Palay-Palay","country":"Philippines","website":null,"opening_hours":null,"capacity":null,"phone":null,"address":null,"ele":"311","operator":null,"wikipedia":null,"wikidata":null,"description":null,"wheelchair":null,"osmType":"node","osmId":320129595,"elevation":"311"}},{"type":"Feature","geometry":{"type":"Point","coordinates":[124.92,8.83]},"properties":{"name":"Pamalihi","country":"Philippines","website":null,"opening_hours":null,"capacity":null,"phone":null,"address":null,"ele":"1956","operator":null,"wikipedia":null,"wikidata":null,"description":null,"wheelchair":null,"osmType":"node","osmId":320129596,"elevation":"1956"}},{"type":"Feature","geometry":{"type":"Point","coordinates":[123.16778,11.27889]},"properties":{"name":"Pan de Azucar","country":"Philippines","website":null,"opening_hours":null,"capacity":null,"phone":null,"address":null,"ele":"572","operator":null,"wikipedia":null,"wikidata":null,"description":null,"wheelchair":null,"osmType":"node","osmId":320129597,"elevation":"572"}},{"type":"Feature","geometry":{"type":"Point","coordinates":[123.90867,7.91449]},"properties":{"name":"Mount Pana","country":"Philippines","website":null,"opening_hours":null,"capacity":null,"phone":null,"address":null,"ele":"290","operator":null,"wikipedia":null,"wikidata":null,"description":null,"wheelchair":null,"osmType":"node","osmId":320129598,"elevation":"290"}},{"type":"Feature","geometry":{"type":"Point","coordinates":[124.3934,11.66793]},"properties":{"name":"Mt. Panamao","country":"Philippines","website":null,"opening_hours":null,"capacity":null,"phone":null,"address":null,"ele":"1056","operator":null,"wikipedia":null,"wikidata":"Q31479877","description":null,"wheelchair":null,"osmType":"node","osmId":320129599,"elevation":"1056","type":"stratovolcano"}},{"type":"Feature","geometry":{"type":"Point","coordinates":[125.03605,6.38388]},"properties":{"name":"Mount Navaro","country":"Philippines","website":null,"opening_hours":null,"capacity":null,"phone":null,"address":null,"ele":"1122","operator":null,"wikipedia":null,"wikidata":null,"description":null,"wheelchair":null,"osmType":"node","osmId":320129600,"elevation":"1122"}},{"type":"Feature","geometry":{"type":"Point","coordinates":[121.4105,13.20253]},"properties":{"name":"Mount Naujan","country":"Philippines","website":null,"opening_hours":null,"capacity":null,"phone":null,"address":null,"ele":"470","operator":null,"wikipedia":null,"wikidata":"Q31481550","description":null,"wheelchair":null,"osmType":"node","osmId":320129601,"elevation":"470"}},{"type":"Feature","geometry":{"type":"Point","coordinates":[125.26973,9.93257]},"properties":{"name":"Mount Nelangcapan","country":"Philippines","website":null,"opening_hours":null,"capacity":null,"phone":null,"address":null,"ele":"687","operator":null,"wikipedia":null,"wikidata":null,"description":null,"wheelchair":null,"osmType":"node","osmId":320129603,"elevation":"687"}},{"type":"Feature","geometry":{"type":"Point","coordinates":[123.62965,8.29282]},"properties":{"name":"North Peak","country":"Philippines","website":null,"opening_hours":null,"capacity":null,"phone":null,"address":null,"ele":"2183","operator":null,"wikipedia":null,"wikidata":null,"description":null,"wheelchair":null,"osmType":"node","osmId":320129605,"elevation":"2183"}},{"type":"Feature","geometry":{"type":"Point","coordinates":[124.86284,8.79998]},"properties":{"name":"Mount Obulon","country":"Philippines","website":null,"opening_hours":null,"capacity":null,"phone":null,"address":null,"ele":"1245","operator":null,"wikipedia":null,"wikidata":null,"description":null,"wheelchair":null,"osmType":"node","osmId":320129606,"elevation":"1245"}},{"type":"Feature","geometry":{"type":"Point","coordinates":[124.52987,11.42002]},"properties":{"name":"Osmena","country":"Philippines","website":null,"opening_hours":null,"capacity":null,"phone":null,"address":null,"ele":"380","operator":null,"wikipedia":null,"wikidata":null,"description":null,"wheelchair":null,"osmType":"node","osmId":320129608,"elevation":"380"}},{"type":"Feature","geometry":{"type":"Point","coordinates":[123.22952,7.97457]},"properties":{"name":"Mount Pinukis","country":"Philippines","website":null,"opening_hours":null,"capacity":null,"phone":null,"address":null,"ele":"1532","operator":null,"wikipedia":"en:Mount Pinukis","wikidata":"Q30621820","description":null,"wheelchair":null,"osmType":"node","osmId":320129611,"elevation":"1532"}},{"type":"Feature","geometry":{"type":"Point","coordinates":[120.40098,15.5667]},"properties":{"name":null,"country":"Philippines","website":null,"opening_hours":null,"capacity":null,"phone":null,"address":null,"ele":"283","operator":null,"wikipedia":null,"wikidata":null,"description":null,"wheelchair":null,"osmType":"node","osmId":320129613,"elevation":"283"}},{"type":"Feature","geometry":{"type":"Point","coordinates":[120.3925,15.56687]},"properties":{"name":null,"country":"Philippines","website":null,"opening_hours":null,"capacity":null,"phone":null,"address":null,"ele":"240","operator":null,"wikipedia":null,"wikidata":null,"description":null,"wheelchair":null,"osmType":"node","osmId":320129614,"elevation":"240"}},{"type":"Feature","geometry":{"type":"Point","coordinates":[124.7333,11.11681]},"properties":{"name":"Proto-labi","country":"Philippines","website":null,"opening_hours":null,"capacity":null,"phone":null,"address":null,"ele":"1120","operator":null,"wikipedia":null,"wikidata":null,"description":null,"wheelchair":null,"osmType":"node","osmId":320129615,"elevation":"1120"}},{"type":"Feature","geometry":{"type":"Point","coordinates":[123.96023,13.04886]},"properties":{"name":"Mount Pocdol","country":"Philippines","website":null,"opening_hours":null,"capacity":null,"phone":null,"address":null,"ele":"1102","operator":null,"wikipedia":null,"wikidata":null,"description":null,"wheelchair":null,"osmType":"node","osmId":320129616,"elevation":"1102"}},{"type":"Feature","geometry":{"type":"Point","coordinates":[121.83409,6.60841]},"properties":{"name":"Pangasahan Hill","country":"Philippines","website":null,"opening_hours":null,"capacity":null,"phone":null,"address":null,"ele":"217","operator":null,"wikipedia":null,"wikidata":"Q30468655","description":null,"wheelchair":null,"osmType":"node","osmId":320129620,"elevation":"217"}},{"type":"Feature","geometry":{"type":"Point","coordinates":[125.4109,6.90053]},"properties":{"name":"Mount Sibulan","country":"Philippines","website":null,"opening_hours":null,"capacity":null,"phone":null,"address":null,"ele":null,"operator":null,"wikipedia":null,"wikidata":null,"description":null,"wheelchair":null,"osmType":"node","osmId":320129629}},{"type":"Feature","geometry":{"type":"Point","coordinates":[124.07316,12.78006]},"properties":{"name":"Sharp Peak","country":"Philippines","website":null,"opening_hours":null,"capacity":null,"phone":null,"address":null,"ele":"1047","operator":null,"wikipedia":null,"wikidata":null,"description":null,"wheelchair":null,"osmType":"node","osmId":320129631,"elevation":"1047"}},{"type":"Feature","geometry":{"type":"Point","coordinates":[124.85813,7.83939]},"properties":{"name":"Mount Salimbal","country":"Philippines","website":null,"opening_hours":null,"capacity":null,"phone":null,"address":null,"ele":"910","operator":null,"wikipedia":null,"wikidata":"Q31506775","description":null,"wheelchair":null,"osmType":"node","osmId":320129637,"elevation":"910","type":"stratovolcano"}},{"type":"Feature","geometry":{"type":"Point","coordinates":[124.42328,8.11856]},"properties":{"name":"Sagada Peak","country":"Philippines","website":null,"opening_hours":null,"capacity":null,"phone":null,"address":null,"ele":"1128","operator":null,"wikipedia":null,"wikidata":null,"description":null,"wheelchair":null,"osmType":"node","osmId":320129640,"elevation":"1128"}},{"type":"Feature","geometry":{"type":"Point","coordinates":[121.22238,10.97657]},"properties":{"name":"Tagauayan","country":"Philippines","website":null,"opening_hours":null,"capacity":null,"phone":null,"address":null,"ele":"159","operator":null,"wikipedia":null,"wikidata":null,"description":null,"wheelchair":null,"osmType":"node","osmId":320129641,"elevation":"159"}},{"type":"Feature","geometry":{"type":"Point","coordinates":[121.09989,10.99802]},"properties":{"name":"Tacbubuc","country":"Philippines","website":null,"opening_hours":null,"capacity":null,"phone":null,"address":null,"ele":"102","operator":null,"wikipedia":null,"wikidata":null,"description":null,"wheelchair":null,"osmType":"node","osmId":320129642,"elevation":"102"}},{"type":"Feature","geometry":{"type":"Point","coordinates":[124.79866,7.46369]},"properties":{"name":"Mount Table","country":"Philippines","website":null,"opening_hours":null,"capacity":null,"phone":null,"address":null,"ele":"576","operator":null,"wikipedia":null,"wikidata":null,"description":null,"wheelchair":null,"osmType":"node","osmId":320129644,"elevation":"576"}},{"type":"Feature","geometry":{"type":"Point","coordinates":[121,14.03333]},"properties":{"name":"Talisay Caldera","country":"Philippines","website":null,"opening_hours":null,"capacity":null,"phone":null,"address":null,"ele":"500","operator":null,"wikipedia":null,"wikidata":null,"description":null,"wheelchair":null,"osmType":"node","osmId":320129645,"elevation":"500"}},{"type":"Feature","geometry":{"type":"Point","coordinates":[124.79723,7.78648]},"properties":{"name":"Mount Tagoan","country":"Philippines","website":null,"opening_hours":null,"capacity":null,"phone":null,"address":null,"ele":"1144","operator":null,"wikipedia":null,"wikidata":null,"description":null,"wheelchair":null,"osmType":"node","osmId":320129648,"elevation":"1144"}},{"type":"Feature","geometry":{"type":"Point","coordinates":[122.20728,6.63167]},"properties":{"name":"Mount Sinangcapan","country":"Philippines","website":null,"opening_hours":null,"capacity":null,"phone":null,"address":null,"ele":"533","operator":null,"wikipedia":null,"wikidata":null,"description":null,"wheelchair":null,"osmType":"node","osmId":320129649,"elevation":"533"}},{"type":"Feature","geometry":{"type":"Point","coordinates":[122.06085,12.80164]},"properties":{"name":"Simara","country":"Philippines","website":null,"opening_hours":null,"capacity":null,"phone":null,"address":null,"ele":"229","operator":null,"wikipedia":null,"wikidata":null,"description":null,"wheelchair":null,"osmType":"node","osmId":320129651,"elevation":"229"}},{"type":"Feature","geometry":{"type":"Point","coordinates":[123.78199,7.80026]},"properties":{"name":"Mount Sigayan","country":"Philippines","website":null,"opening_hours":null,"capacity":null,"phone":null,"address":null,"ele":"730","operator":null,"wikipedia":null,"wikidata":null,"description":null,"wheelchair":null,"osmType":"node","osmId":320129658,"elevation":"730"}},{"type":"Feature","geometry":{"type":"Point","coordinates":[123.25,8]},"properties":{"name":"Sugarloaf Complex","country":"Philippines","website":null,"opening_hours":null,"capacity":null,"phone":null,"address":null,"ele":"1432","operator":null,"wikipedia":null,"wikidata":null,"description":null,"wheelchair":null,"osmType":"node","osmId":320129665,"elevation":"1432"}},{"type":"Feature","geometry":{"type":"Point","coordinates":[124.6856,9.19144]},"properties":{"name":"Tres Marias","country":"Philippines","website":null,"opening_hours":null,"capacity":null,"phone":null,"address":null,"ele":"740","operator":null,"wikipedia":null,"wikidata":null,"description":null,"wheelchair":null,"osmType":"node","osmId":320129667,"elevation":"740"}},{"type":"Feature","geometry":{"type":"Point","coordinates":[121.83333,6.23333]},"properties":{"name":"Tatalan","country":"Philippines","website":null,"opening_hours":null,"capacity":null,"phone":null,"address":null,"ele":"102","operator":null,"wikipedia":null,"wikidata":null,"description":null,"wheelchair":null,"osmType":"node","osmId":320129671,"elevation":"102"}},{"type":"Feature","geometry":{"type":"Point","coordinates":[124.68359,8.11997]},"properties":{"name":"Ticalan","country":"Philippines","website":null,"opening_hours":null,"capacity":null,"phone":null,"address":null,"ele":"1041","operator":null,"wikipedia":null,"wikidata":null,"description":null,"wheelchair":null,"osmType":"node","osmId":320129673,"elevation":"1041"}},{"type":"Feature","geometry":{"type":"Point","coordinates":[121.20712,13.84843]},"properties":{"name":"Tambol Hill","country":"Philippines","website":null,"opening_hours":null,"capacity":null,"phone":null,"address":null,"ele":"235","operator":null,"wikipedia":null,"wikidata":null,"description":null,"wheelchair":null,"osmType":"node","osmId":320129674,"elevation":"235"}},{"type":"Feature","geometry":{"type":"Point","coordinates":[121.96201,6.3034]},"properties":{"name":"Tapiantana","country":"Philippines","website":null,"opening_hours":null,"capacity":null,"phone":null,"address":null,"ele":"249","operator":null,"wikipedia":null,"wikidata":null,"description":null,"wheelchair":null,"osmType":"node","osmId":320129675,"elevation":"249"}},{"type":"Feature","geometry":{"type":"Point","coordinates":[124.43857,11.54073]},"properties":{"name":"Mt. Tamburok","country":"Philippines","website":null,"opening_hours":null,"capacity":null,"phone":null,"address":null,"ele":"437","operator":null,"wikipedia":null,"wikidata":null,"description":null,"wheelchair":null,"osmType":"node","osmId":320129680,"elevation":"437"}},{"type":"Feature","geometry":{"type":"Point","coordinates":[125.40999,6.47529]},"properties":{"name":"Mount Tangali","country":"Philippines","website":null,"opening_hours":null,"capacity":null,"phone":null,"address":null,"ele":"1120","operator":null,"wikipedia":null,"wikidata":null,"description":null,"wheelchair":null,"osmType":"node","osmId":320129682,"elevation":"1120"}},{"type":"Feature","geometry":{"type":"Point","coordinates":[123.5204,7.94896]},"properties":{"name":null,"country":"Philippines","website":null,"opening_hours":null,"capacity":null,"phone":null,"address":null,"ele":"200","operator":null,"wikipedia":null,"wikidata":null,"description":null,"wheelchair":null,"osmType":"node","osmId":320129683,"elevation":"200"}},{"type":"Feature","geometry":{"type":"Point","coordinates":[123.52083,7.89167]},"properties":{"name":null,"country":"Philippines","website":null,"opening_hours":null,"capacity":null,"phone":null,"address":null,"ele":"88","operator":null,"wikipedia":null,"wikidata":null,"description":null,"wheelchair":null,"osmType":"node","osmId":320129684,"elevation":"88"}},{"type":"Feature","geometry":{"type":"Point","coordinates":[123.48333,7.95]},"properties":{"name":null,"country":"Philippines","website":null,"opening_hours":null,"capacity":null,"phone":null,"address":null,"ele":"360","operator":null,"wikipedia":null,"wikidata":null,"description":null,"wheelchair":null,"osmType":"node","osmId":320129685,"elevation":"360"}},{"type":"Feature","geometry":{"type":"Point","coordinates":[123.5,7.91667]},"properties":{"name":null,"country":"Philippines","website":null,"opening_hours":null,"capacity":null,"phone":null,"address":null,"ele":"366","operator":null,"wikipedia":null,"wikidata":null,"description":null,"wheelchair":null,"osmType":"node","osmId":320129686,"elevation":"366"}},{"type":"Feature","geometry":{"type":"Point","coordinates":[123.55,7.93333]},"properties":{"name":null,"country":"Philippines","website":null,"opening_hours":null,"capacity":null,"phone":null,"address":null,"ele":"276","operator":null,"wikipedia":null,"wikidata":null,"description":null,"wheelchair":null,"osmType":"node","osmId":320129687,"elevation":"276"}},{"type":"Feature","geometry":{"type":"Point","coordinates":[123.55833,7.90833]},"properties":{"name":null,"country":"Philippines","website":null,"opening_hours":null,"capacity":null,"phone":null,"address":null,"ele":"319","operator":null,"wikipedia":null,"wikidata":null,"description":null,"wheelchair":null,"osmType":"node","osmId":320129688,"elevation":"319"}},{"type":"Feature","geometry":{"type":"Point","coordinates":[123.51667,7.925]},"properties":{"name":null,"country":"Philippines","website":null,"opening_hours":null,"capacity":null,"phone":null,"address":null,"ele":"472","operator":null,"wikipedia":null,"wikidata":null,"description":null,"wheelchair":null,"osmType":"node","osmId":320129689,"elevation":"472"}},{"type":"Feature","geometry":{"type":"Point","coordinates":[123.54167,7.91667]},"properties":{"name":null,"country":"Philippines","website":null,"opening_hours":null,"capacity":null,"phone":null,"address":null,"ele":"492","operator":null,"wikipedia":null,"wikidata":null,"description":null,"wheelchair":null,"osmType":"node","osmId":320129690,"elevation":"492"}},{"type":"Feature","geometry":{"type":"Point","coordinates":[123.16671,7.84426]},"properties":{"name":"Wood","country":"Philippines","website":null,"opening_hours":null,"capacity":null,"phone":null,"address":null,"ele":null,"operator":null,"wikipedia":null,"wikidata":null,"description":null,"wheelchair":null,"osmType":"node","osmId":320129696}},{"type":"Feature","geometry":{"type":"Point","coordinates":[123.55833,7.89167]},"properties":{"name":null,"country":"Philippines","website":null,"opening_hours":null,"capacity":null,"phone":null,"address":null,"ele":"200","operator":null,"wikipedia":null,"wikidata":null,"description":null,"wheelchair":null,"osmType":"node","osmId":320129699,"elevation":"200"}},{"type":"Feature","geometry":{"type":"Point","coordinates":[123.58333,7.89167]},"properties":{"name":null,"country":"Philippines","website":null,"opening_hours":null,"capacity":null,"phone":null,"address":null,"ele":"237","operator":null,"wikipedia":null,"wikidata":null,"description":null,"wheelchair":null,"osmType":"node","osmId":320129700,"elevation":"237"}},{"type":"Feature","geometry":{"type":"Point","coordinates":[124.50612,11.53445]},"properties":{"name":"Vulcan (Biliran)","country":"Philippines","website":null,"opening_hours":null,"capacity":null,"phone":null,"address":null,"ele":"1015","operator":null,"wikipedia":null,"wikidata":null,"description":null,"wheelchair":null,"osmType":"node","osmId":320129701,"elevation":"1015"}},{"type":"Feature","geometry":{"type":"Point","coordinates":[121.08022,13.56125]},"properties":{"name":"Verde","country":"Philippines","website":null,"opening_hours":null,"capacity":null,"phone":null,"address":null,"ele":"364","operator":null,"wikipedia":null,"wikidata":null,"description":null,"wheelchair":null,"osmType":"node","osmId":320129702,"elevation":"364"}},{"type":"Feature","geometry":{"type":"Point","coordinates":[124.64882,9.21391]},"properties":{"name":"Mount Vulcan","country":"Philippines","website":null,"opening_hours":null,"capacity":null,"phone":null,"address":null,"ele":"550","operator":null,"wikipedia":null,"wikidata":null,"description":null,"wheelchair":null,"osmType":"node","osmId":320129704,"elevation":"550"}},{"type":"Feature","geometry":{"type":"Point","coordinates":[123.475,7.93333]},"properties":{"name":null,"country":"Philippines","website":null,"opening_hours":null,"capacity":null,"phone":null,"address":null,"ele":"331","operator":null,"wikipedia":null,"wikidata":null,"description":null,"wheelchair":null,"osmType":"node","osmId":320129705,"elevation":"331"}},{"type":"Feature","geometry":{"type":"Point","coordinates":[123.45833,7.95833]},"properties":{"name":null,"country":"Philippines","website":null,"opening_hours":null,"capacity":null,"phone":null,"address":null,"ele":"590","operator":null,"wikipedia":null,"wikidata":null,"description":null,"wheelchair":null,"osmType":"node","osmId":320129706,"elevation":"590"}},{"type":"Feature","geometry":{"type":"Point","coordinates":[124.57379,11.52938]},"properties":{"name":"Mount Suiro","country":"Philippines","website":null,"opening_hours":null,"capacity":null,"phone":null,"address":null,"ele":"1301","operator":null,"wikipedia":null,"wikidata":"Q31474078","description":"Last erupted 1939 Sept. 26, Number of eruptions = 1","wheelchair":null,"osmType":"node","osmId":332018999,"elevation":"1301"}},{"type":"Feature","geometry":{"type":"Point","coordinates":[121.10534,13.65339]},"properties":{"name":"Mount Pinamucan","country":"Philippines","website":null,"opening_hours":null,"capacity":null,"phone":null,"address":null,"ele":"798","operator":null,"wikipedia":null,"wikidata":null,"description":null,"wheelchair":null,"osmType":"node","osmId":332019006,"elevation":"798"}},{"type":"Feature","geometry":{"type":"Point","coordinates":[123.17781,9.24451]},"properties":{"name":"Mount Talinis","country":"Philippines","website":null,"opening_hours":null,"capacity":null,"phone":null,"address":null,"ele":"1903","operator":null,"wikipedia":"en:Mount Talinis","wikidata":"Q1143188","description":"The highest peak in the Cuernos de Negros mountain range, and second highest in Negros Island","wheelchair":null,"osmType":"node","osmId":332019186,"elevation":"1903"}},{"type":"Feature","geometry":{"type":"Point","coordinates":[124.53361,11.52166]},"properties":{"name":"Mount Lauaan","country":"Philippines","website":null,"opening_hours":null,"capacity":null,"phone":null,"address":null,"ele":"1172","operator":null,"wikipedia":null,"wikidata":"Q31488045","description":null,"wheelchair":null,"osmType":"node","osmId":332019413,"elevation":"1172"}},{"type":"Feature","geometry":{"type":"Point","coordinates":[125.2192,10.27771]},"properties":{"name":"Mount Cabalian","country":"Philippines","website":null,"opening_hours":null,"capacity":null,"phone":null,"address":null,"ele":"945","operator":null,"wikipedia":"en:Cabalian Volcano","wikidata":"Q1024704","description":null,"wheelchair":null,"osmType":"node","osmId":332019634,"elevation":"945","type":"stratovolcano"}},{"type":"Feature","geometry":{"type":"Point","coordinates":[120.48151,14.52846]},"properties":{"name":"Mount Mariveles","country":"Philippines","website":null,"opening_hours":null,"capacity":null,"phone":null,"address":null,"ele":null,"operator":null,"wikipedia":"en:Mount Mariveles","wikidata":"Q1161733","description":null,"wheelchair":null,"osmType":"node","osmId":332019716,"type":"stratovolcano"}},{"type":"Feature","geometry":{"type":"Point","coordinates":[123.23344,10.76903]},"properties":{"name":"Mount Silay","country":"Philippines","website":null,"opening_hours":null,"capacity":null,"phone":null,"address":null,"ele":"1535","operator":null,"wikipedia":"en:Silay (volcano)","wikidata":"Q969968","description":null,"wheelchair":null,"osmType":"node","osmId":332020060,"elevation":"1535"}},{"type":"Feature","geometry":{"type":"Point","coordinates":[125.3169,7.04097]},"properties":{"name":"Mount Talomo","country":"Philippines","website":null,"opening_hours":null,"capacity":null,"phone":null,"address":null,"ele":"2674","operator":null,"wikipedia":null,"wikidata":"Q31472786","description":null,"wheelchair":null,"osmType":"node","osmId":332020483,"elevation":"2674","type":"stratovolcano"}},{"type":"Feature","geometry":{"type":"Point","coordinates":[124.76768,9.09347]},"properties":{"name":"Mount Guinsiliban","country":"Philippines","website":null,"opening_hours":null,"capacity":null,"phone":null,"address":null,"ele":"570","operator":null,"wikipedia":null,"wikidata":null,"description":null,"wheelchair":null,"osmType":"node","osmId":332020782,"elevation":"570"}},{"type":"Feature","geometry":{"type":"Point","coordinates":[125.37628,5.39815]},"properties":{"name":"Mount Balut","country":"Philippines","website":null,"opening_hours":null,"capacity":null,"phone":null,"address":null,"ele":"840","operator":null,"wikipedia":null,"wikidata":"Q26857904","description":null,"wheelchair":null,"osmType":"node","osmId":332020872,"elevation":"840"}},{"type":"Feature","geometry":{"type":"Point","coordinates":[120.90014,13.45345]},"properties":{"name":"Mount Malasimbo","country":"Philippines","website":null,"opening_hours":null,"capacity":null,"phone":null,"address":null,"ele":"1210","operator":null,"wikipedia":null,"wikidata":null,"description":null,"wheelchair":null,"osmType":"node","osmId":332020914,"elevation":"1210"}},{"type":"Feature","geometry":{"type":"Point","coordinates":[124.50037,11.57249]},"properties":{"name":"Mount Sayao (Giron)","country":"Philippines","website":null,"opening_hours":null,"capacity":null,"phone":null,"address":null,"ele":"965","operator":null,"wikipedia":null,"wikidata":null,"description":null,"wheelchair":null,"osmType":"node","osmId":332021001,"elevation":"965"}},{"type":"Feature","geometry":{"type":"Point","coordinates":[124.50723,7.69086]},"properties":{"name":"Mount Piapayungan","country":"Philippines","website":null,"opening_hours":null,"capacity":null,"phone":null,"address":null,"ele":"2815","operator":null,"wikipedia":"en:Mount Ragang","wikidata":"Q31478904","description":null,"wheelchair":null,"osmType":"node","osmId":332021231,"elevation":"2815","type":"stratovolcano"}},{"type":"Feature","geometry":{"type":"Point","coordinates":[122.82222,14.21889]},"properties":{"name":"Mount Bacacay","country":"Philippines","website":null,"opening_hours":null,"capacity":null,"phone":null,"address":null,"ele":"787","operator":null,"wikipedia":null,"wikidata":null,"description":null,"wheelchair":null,"osmType":"node","osmId":332021316,"elevation":"787"}},{"type":"Feature","geometry":{"type":"Point","coordinates":[125.06969,7.87698]},"properties":{"name":"Musuan Peak","country":"Philippines","website":null,"opening_hours":null,"capacity":null,"phone":null,"address":null,"ele":"646","operator":null,"wikipedia":"en:Musuan Peak","wikidata":"Q828349","description":null,"wheelchair":null,"osmType":"node","osmId":332021476,"elevation":"646","type":"scoria"}},{"type":"Feature","geometry":{"type":"Point","coordinates":[125.271,6.98734]},"properties":{"name":"Mount Apo","country":"Philippines","website":null,"opening_hours":null,"capacity":null,"phone":null,"address":null,"ele":"2954","operator":null,"wikipedia":"en:Mount Apo","wikidata":"Q455963","description":"Highest mountain of the Philippines","wheelchair":null,"osmType":"node","osmId":416326155,"elevation":"2954","type":"stratovolcano"}},{"type":"Feature","geometry":{"type":"Point","coordinates":[123.72935,13.16094]},"properties":{"name":"Ligñon Hill","country":"Philippines","website":null,"opening_hours":null,"capacity":null,"phone":null,"address":null,"ele":"156","operator":null,"wikipedia":"en:Ligñon Hill","wikidata":"Q18353848","description":null,"wheelchair":null,"osmType":"node","osmId":1827443584,"elevation":"156","type":"scoria"}},{"type":"Feature","geometry":{"type":"Point","coordinates":[122.40488,11.41701]},"properties":{"name":"Mount Madia-as","country":"Philippines","website":null,"opening_hours":null,"capacity":null,"phone":null,"address":null,"ele":null,"operator":null,"wikipedia":null,"wikidata":null,"description":null,"wheelchair":null,"osmType":"node","osmId":1910811044}},{"type":"Feature","geometry":{"type":"Point","coordinates":[123.99033,11.87857]},"properties":{"name":"Mount Biang","country":"Philippines","website":null,"opening_hours":null,"capacity":null,"phone":null,"address":null,"ele":"70","operator":null,"wikipedia":null,"wikidata":null,"description":null,"wheelchair":null,"osmType":"node","osmId":4237026660,"elevation":"70"}},{"type":"Feature","geometry":{"type":"Point","coordinates":[124.91608,8.13966]},"properties":{"name":"Mount Kitanglad","country":"Philippines","website":null,"opening_hours":null,"capacity":null,"phone":null,"address":null,"ele":"2899","operator":null,"wikipedia":"en:Mount Kitanglad","wikidata":"Q1586619","description":null,"wheelchair":null,"osmType":"node","osmId":5992286140,"elevation":"2899"}},{"type":"Feature","geometry":{"type":"Point","coordinates":[123.23579,10.63717]},"properties":{"name":"Mount Mandalagan","country":"Philippines","website":null,"opening_hours":null,"capacity":null,"phone":null,"address":null,"ele":null,"operator":null,"wikipedia":null,"wikidata":"Q1888826","description":null,"wheelchair":null,"osmType":"node","osmId":6009939467,"type":"stratovolcano"}},{"type":"Feature","geometry":{"type":"Point","coordinates":[124.80269,7.95509]},"properties":{"name":"Mount Kalatungan","country":"Philippines","website":null,"opening_hours":null,"capacity":null,"phone":null,"address":null,"ele":"2860","operator":null,"wikipedia":"en:Mount Kalatungan","wikidata":"Q1646267","description":null,"wheelchair":null,"osmType":"node","osmId":6011670309,"elevation":"2860","type":"stratovolcano"}},{"type":"Feature","geometry":{"type":"Point","coordinates":[124.31959,11.78943]},"properties":{"name":"Mount Maripipi","country":"Philippines","website":null,"opening_hours":null,"capacity":null,"phone":null,"address":null,"ele":"924","operator":null,"wikipedia":null,"wikidata":null,"description":null,"wheelchair":null,"osmType":"node","osmId":6045705094,"elevation":"924"}},{"type":"Feature","geometry":{"type":"Point","coordinates":[124.81259,11.01281]},"properties":{"name":"Mount Lobi","country":"Philippines","website":null,"opening_hours":null,"capacity":null,"phone":null,"address":null,"ele":"1000","operator":null,"wikipedia":null,"wikidata":null,"description":null,"wheelchair":null,"osmType":"node","osmId":6054063643,"elevation":"1000"}},{"type":"Feature","geometry":{"type":"Point","coordinates":[124.77755,11.06078]},"properties":{"name":"Mount Cancajanag","country":"Philippines","website":null,"opening_hours":null,"capacity":null,"phone":null,"address":null,"ele":"900","operator":null,"wikipedia":null,"wikidata":null,"description":null,"wheelchair":null,"osmType":"node","osmId":6054063644,"elevation":"900"}},{"type":"Feature","geometry":{"type":"Point","coordinates":[124.8651,10.88042]},"properties":{"name":"Mount Mahagnao","country":"Philippines","website":null,"opening_hours":null,"capacity":null,"phone":null,"address":null,"ele":"860","operator":null,"wikipedia":"en:Mahagnao Volcano","wikidata":"Q1884746","description":null,"wheelchair":null,"osmType":"node","osmId":6054094043,"elevation":"860"}},{"type":"Feature","geometry":{"type":"Point","coordinates":[122.20355,19.07459]},"properties":{"name":"Didicas Volcano","country":"Philippines","website":null,"opening_hours":null,"capacity":null,"phone":null,"address":null,"ele":"228","operator":null,"wikipedia":"en:Didicas Volcano","wikidata":"Q788862","description":null,"wheelchair":null,"osmType":"node","osmId":6113070597,"elevation":"228","type":"lava_dome"}},{"type":"Feature","geometry":{"type":"Point","coordinates":[124.87492,9.01337]},"properties":{"name":"Mount Sipaka","country":"Philippines","website":null,"opening_hours":null,"capacity":null,"phone":null,"address":null,"ele":"220","operator":null,"wikipedia":null,"wikidata":null,"description":null,"wheelchair":null,"osmType":"node","osmId":6129844989,"elevation":"220","type":"scoria"}},{"type":"Feature","geometry":{"type":"Point","coordinates":[125.09603,7.76974]},"properties":{"name":null,"country":"Philippines","website":null,"opening_hours":null,"capacity":null,"phone":null,"address":null,"ele":"620","operator":null,"wikipedia":null,"wikidata":null,"description":null,"wheelchair":null,"osmType":"node","osmId":6222312905,"elevation":"620"}},{"type":"Feature","geometry":{"type":"Point","coordinates":[125.11433,7.73902]},"properties":{"name":null,"country":"Philippines","website":null,"opening_hours":null,"capacity":null,"phone":null,"address":null,"ele":null,"operator":null,"wikipedia":null,"wikidata":null,"description":null,"wheelchair":null,"osmType":"node","osmId":6222312960}},{"type":"Feature","geometry":{"type":"Point","coordinates":[124.52539,7.62759]},"properties":{"name":null,"country":"Philippines","website":null,"opening_hours":null,"capacity":null,"phone":null,"address":null,"ele":null,"operator":null,"wikipedia":null,"wikidata":null,"description":null,"wheelchair":null,"osmType":"node","osmId":8151598468}},{"type":"Feature","geometry":{"type":"Point","coordinates":[124.25093,7.60979]},"properties":{"name":null,"country":"Philippines","website":null,"opening_hours":null,"capacity":null,"phone":null,"address":null,"ele":"1230","operator":null,"wikipedia":null,"wikidata":null,"description":null,"wheelchair":null,"osmType":"node","osmId":8151598522,"elevation":"1230"}},{"type":"Feature","geometry":{"type":"Point","coordinates":[124.20903,7.62471]},"properties":{"name":null,"country":"Philippines","website":null,"opening_hours":null,"capacity":null,"phone":null,"address":null,"ele":"1390","operator":null,"wikipedia":null,"wikidata":null,"description":null,"wheelchair":null,"osmType":"node","osmId":8151598523,"elevation":"1390"}},{"type":"Feature","geometry":{"type":"Point","coordinates":[124.22162,7.62167]},"properties":{"name":null,"country":"Philippines","website":null,"opening_hours":null,"capacity":null,"phone":null,"address":null,"ele":"1460","operator":null,"wikipedia":null,"wikidata":null,"description":null,"wheelchair":null,"osmType":"node","osmId":8151598524,"elevation":"1460"}},{"type":"Feature","geometry":{"type":"Point","coordinates":[124.22503,7.6295]},"properties":{"name":null,"country":"Philippines","website":null,"opening_hours":null,"capacity":null,"phone":null,"address":null,"ele":"1540","operator":null,"wikipedia":null,"wikidata":null,"description":null,"wheelchair":null,"osmType":"node","osmId":8151598525,"elevation":"1540"}},{"type":"Feature","geometry":{"type":"Point","coordinates":[124.23546,7.63501]},"properties":{"name":null,"country":"Philippines","website":null,"opening_hours":null,"capacity":null,"phone":null,"address":null,"ele":"1560","operator":null,"wikipedia":null,"wikidata":null,"description":null,"wheelchair":null,"osmType":"node","osmId":8151598526,"elevation":"1560"}},{"type":"Feature","geometry":{"type":"Point","coordinates":[124.76435,9.12161]},"properties":{"name":"Mount Butay","country":"Philippines","website":null,"opening_hours":null,"capacity":null,"phone":null,"address":null,"ele":"670","operator":null,"wikipedia":null,"wikidata":null,"description":null,"wheelchair":null,"osmType":"node","osmId":8654332282,"elevation":"670"}},{"type":"Feature","geometry":{"type":"Point","coordinates":[125.36947,5.38635]},"properties":{"name":"Mount Langab","country":"Philippines","website":null,"opening_hours":null,"capacity":null,"phone":null,"address":null,"ele":"670","operator":null,"wikipedia":null,"wikidata":null,"description":null,"wheelchair":null,"osmType":"node","osmId":8754616612,"elevation":"670"}},{"type":"Feature","geometry":{"type":"Point","coordinates":[124.91933,7.92456]},"properties":{"name":"Mount Kalo-Kalo","country":"Philippines","website":null,"opening_hours":null,"capacity":null,"phone":null,"address":null,"ele":"1800","operator":null,"wikipedia":null,"wikidata":null,"description":null,"wheelchair":null,"osmType":"node","osmId":9249525050,"elevation":"1800"}},{"type":"Feature","geometry":{"type":"Point","coordinates":[121.25265,14.32305]},"properties":{"name":"Laguna Caldera","country":"Philippines","website":null,"opening_hours":null,"capacity":null,"phone":null,"address":null,"ele":null,"operator":null,"wikipedia":"en:Laguna Caldera","wikidata":"Q6472796","description":null,"wheelchair":null,"osmType":"node","osmId":10117717600}},{"type":"Feature","geometry":{"type":"Point","coordinates":[120.97771,13.98175]},"properties":{"name":"Binintiang Malaki","country":"Philippines","website":null,"opening_hours":null,"capacity":null,"phone":null,"address":null,"ele":"263","operator":null,"wikipedia":null,"wikidata":null,"description":null,"wheelchair":null,"osmType":"node","osmId":10117860600,"elevation":"263","type":"scoria"}},{"type":"Feature","geometry":{"type":"Point","coordinates":[124.4939,11.64953]},"properties":{"name":"Mt. Acaban","country":"Philippines","website":null,"opening_hours":null,"capacity":null,"phone":null,"address":null,"ele":"725","operator":null,"wikipedia":null,"wikidata":null,"description":null,"wheelchair":null,"osmType":"node","osmId":10196881886,"elevation":"725"}},{"type":"Feature","geometry":{"type":"Point","coordinates":[120.74311,15.20129]},"properties":{"name":"Mount Arayat","country":"Philippines","website":null,"opening_hours":null,"capacity":null,"phone":null,"address":null,"ele":null,"operator":null,"wikipedia":"en:Mount Arayat","wikidata":"Q626809","description":null,"wheelchair":null,"osmType":"node","osmId":10245481482,"type":"stratovolcano"}},{"type":"Feature","geometry":{"type":"Point","coordinates":[124.35946,7.6394]},"properties":{"name":null,"country":"Philippines","website":null,"opening_hours":null,"capacity":null,"phone":null,"address":null,"ele":null,"operator":null,"wikipedia":null,"wikidata":null,"description":null,"wheelchair":null,"osmType":"node","osmId":10263297556}},{"type":"Feature","geometry":{"type":"Point","coordinates":[124.35689,7.64664]},"properties":{"name":null,"country":"Philippines","website":null,"opening_hours":null,"capacity":null,"phone":null,"address":null,"ele":null,"operator":null,"wikipedia":null,"wikidata":null,"description":null,"wheelchair":null,"osmType":"node","osmId":10263297557}},{"type":"Feature","geometry":{"type":"Point","coordinates":[124.38486,7.64829]},"properties":{"name":null,"country":"Philippines","website":null,"opening_hours":null,"capacity":null,"phone":null,"address":null,"ele":null,"operator":null,"wikipedia":null,"wikidata":null,"description":null,"wheelchair":null,"osmType":"node","osmId":10263297558}},{"type":"Feature","geometry":{"type":"Point","coordinates":[124.38093,7.64708]},"properties":{"name":null,"country":"Philippines","website":null,"opening_hours":null,"capacity":null,"phone":null,"address":null,"ele":null,"operator":null,"wikipedia":null,"wikidata":null,"description":null,"wheelchair":null,"osmType":"node","osmId":10263297559}},{"type":"Feature","geometry":{"type":"Point","coordinates":[124.34216,7.6301]},"properties":{"name":null,"country":"Philippines","website":null,"opening_hours":null,"capacity":null,"phone":null,"address":null,"ele":null,"operator":null,"wikipedia":null,"wikidata":null,"description":null,"wheelchair":null,"osmType":"node","osmId":10263297560}},{"type":"Feature","geometry":{"type":"Point","coordinates":[121.83334,18.90387]},"properties":{"name":"Mount Pamoctan","country":"Philippines","website":null,"opening_hours":null,"capacity":null,"phone":null,"address":null,"ele":"210","operator":null,"wikipedia":null,"wikidata":null,"description":null,"wheelchair":null,"osmType":"node","osmId":11987089442,"elevation":"210","type":"lava_dome"}},{"type":"Feature","geometry":{"type":"Point","coordinates":[121.94744,18.94511]},"properties":{"name":"Mount Caanoan","country":"Philippines","website":null,"opening_hours":null,"capacity":null,"phone":null,"address":null,"ele":"670","operator":null,"wikipedia":null,"wikidata":null,"description":null,"wheelchair":null,"osmType":"node","osmId":11987089456,"elevation":"670"}},{"type":"Feature","geometry":{"type":"Point","coordinates":[121.925,18.97375]},"properties":{"name":"Mount Minabel","country":"Philippines","website":null,"opening_hours":null,"capacity":null,"phone":null,"address":null,"ele":"660","operator":null,"wikipedia":null,"wikidata":null,"description":null,"wheelchair":null,"osmType":"node","osmId":11987105970,"elevation":"660"}}]}