{"type":"FeatureCollection","features":[{"type":"Feature","geometry":{"type":"Point","coordinates":[-156.23292,20.71696]},"properties":{"name":"Ka Lua o ka ʻŌʻō Cinder Cone","country":"United States of America","website":null,"opening_hours":null,"capacity":null,"phone":null,"osmType":"node","osmId":984292483}},{"type":"Feature","geometry":{"type":"Point","coordinates":[-155.1064,19.38891]},"properties":{"name":"Puʻu ʻŌʻō","country":"United States of America","website":null,"opening_hours":null,"capacity":null,"phone":null,"osmType":"node","osmId":1389039265,"elevation":"724"}},{"type":"Feature","geometry":{"type":"Point","coordinates":[-155.46807,19.82067]},"properties":{"name":"Mauna Kea","country":"United States of America","website":"https://volcano.si.edu/volcano.cfm?vn=332030","opening_hours":null,"capacity":null,"phone":null,"osmType":"node","osmId":2189450439,"elevation":"4205","type":"shield"}},{"type":"Feature","geometry":{"type":"Point","coordinates":[-155.6057,19.47553]},"properties":{"name":"Mauna Loa","country":"United States of America","website":"https://www.nps.gov/havo/planyourvisit/hike_maunaloa.htm","opening_hours":null,"capacity":null,"phone":null,"osmType":"node","osmId":2189457641,"elevation":"4169"}},{"type":"Feature","geometry":{"type":"Point","coordinates":[-155.77732,19.90178]},"properties":{"name":"Puʻuhānaʻi","country":"United States of America","website":null,"opening_hours":null,"capacity":null,"phone":null,"osmType":"node","osmId":2217162725,"elevation":"436","type":"scoria"}},{"type":"Feature","geometry":{"type":"Point","coordinates":[-155.63418,19.76666]},"properties":{"name":"Pu'ukapele Crater","country":"United States of America","website":null,"opening_hours":null,"capacity":null,"phone":null,"osmType":"node","osmId":2459995280,"type":"scoria"}},{"type":"Feature","geometry":{"type":"Point","coordinates":[-155.60539,19.77352]},"properties":{"name":null,"country":"United States of America","website":null,"opening_hours":null,"capacity":null,"phone":null,"osmType":"node","osmId":2459995285,"type":"scoria"}},{"type":"Feature","geometry":{"type":"Point","coordinates":[-155.60222,19.77715]},"properties":{"name":null,"country":"United States of America","website":null,"opening_hours":null,"capacity":null,"phone":null,"osmType":"node","osmId":2459995288,"type":"scoria"}},{"type":"Feature","geometry":{"type":"Point","coordinates":[-155.60861,19.77871]},"properties":{"name":null,"country":"United States of America","website":null,"opening_hours":null,"capacity":null,"phone":null,"osmType":"node","osmId":2459995292,"type":"scoria"}},{"type":"Feature","geometry":{"type":"Point","coordinates":[-155.49067,19.90442]},"properties":{"name":"Kaluamakani","country":"United States of America","website":null,"opening_hours":null,"capacity":null,"phone":null,"osmType":"node","osmId":2459995349,"elevation":"2310","type":"scoria"}},{"type":"Feature","geometry":{"type":"Point","coordinates":[-156.44929,20.63655]},"properties":{"name":"Puʻuōlaʻi","country":"United States of America","website":null,"opening_hours":null,"capacity":null,"phone":null,"osmType":"node","osmId":2689100160,"elevation":"110"}},{"type":"Feature","geometry":{"type":"Point","coordinates":[-155.59237,19.47173]},"properties":{"name":"Mauna Loa","country":"United States of America","website":"https://volcano.si.edu/volcano.cfm?vn=332020","opening_hours":null,"capacity":null,"phone":null,"osmType":"node","osmId":2733993250,"elevation":"4169","type":"shield"}},{"type":"Feature","geometry":{"type":"Point","coordinates":[-155.86665,19.69107]},"properties":{"name":"Hualālai","country":"United States of America","website":"https://volcano.si.edu/volcano.cfm?vn=332040","opening_hours":null,"capacity":null,"phone":null,"osmType":"node","osmId":2734156325,"elevation":"2523","type":"shield"}},{"type":"Feature","geometry":{"type":"Point","coordinates":[-155.14334,19.37403]},"properties":{"name":"Nāpau Crater","country":"United States of America","website":null,"opening_hours":null,"capacity":null,"phone":null,"osmType":"node","osmId":2734299189}},{"type":"Feature","geometry":{"type":"Point","coordinates":[-155.27581,19.41386]},"properties":{"name":"Kīlauea","country":"United States of America","website":"https://volcano.si.edu/volcano.cfm?vn=332010","opening_hours":null,"capacity":null,"phone":null,"osmType":"node","osmId":2734299214,"elevation":"1222","type":"shield"}},{"type":"Feature","geometry":{"type":"Point","coordinates":[-155.16985,19.36461]},"properties":{"name":"Makaopuhi Crater","country":"United States of America","website":null,"opening_hours":null,"capacity":null,"phone":null,"osmType":"node","osmId":2734299224}},{"type":"Feature","geometry":{"type":"Point","coordinates":[-155.14516,19.36645]},"properties":{"name":"Puaʻiālua Crater","country":"United States of America","website":null,"opening_hours":null,"capacity":null,"phone":null,"osmType":"node","osmId":2734299262}},{"type":"Feature","geometry":{"type":"Point","coordinates":[-155.20157,19.36733]},"properties":{"name":"Mauna Ulu","country":"United States of America","website":null,"opening_hours":null,"capacity":null,"phone":null,"osmType":"node","osmId":2734299272,"elevation":"1053","type":"shield"}},{"type":"Feature","geometry":{"type":"Point","coordinates":[-155.23005,19.37439]},"properties":{"name":"Hiʻiaka Crater","country":"United States of America","website":null,"opening_hours":null,"capacity":null,"phone":null,"osmType":"node","osmId":2734400031}},{"type":"Feature","geometry":{"type":"Point","coordinates":[-156.58524,20.88979]},"properties":{"name":"Maui Komohana","country":"United States of America","website":null,"opening_hours":null,"capacity":null,"phone":null,"osmType":"node","osmId":2734821265,"elevation":"1764","type":"shield"}},{"type":"Feature","geometry":{"type":"Point","coordinates":[-156.25309,20.71009]},"properties":{"name":"Puʻuʻulaʻula","country":"United States of America","website":"https://www.volcano.si.edu/volcano.cfm?vn=332060","opening_hours":null,"capacity":null,"phone":null,"osmType":"node","osmId":2735004600,"elevation":"3055","type":"shield"}},{"type":"Feature","geometry":{"type":"Point","coordinates":[-155.71869,20.07499]},"properties":{"name":"Kohala","country":"United States of America","website":null,"opening_hours":null,"capacity":null,"phone":null,"osmType":"node","osmId":3050855366,"elevation":"1670","type":"shield"}},{"type":"Feature","geometry":{"type":"Point","coordinates":[-156.38721,20.73213]},"properties":{"name":"Puu o Kali","country":"United States of America","website":null,"opening_hours":null,"capacity":null,"phone":null,"osmType":"node","osmId":4936218041,"type":"scoria"}},{"type":"Feature","geometry":{"type":"Point","coordinates":[-156.32793,20.67393]},"properties":{"name":null,"country":"United States of America","website":null,"opening_hours":null,"capacity":null,"phone":null,"osmType":"node","osmId":4936232120,"type":"scoria"}},{"type":"Feature","geometry":{"type":"Point","coordinates":[-154.90887,19.46163]},"properties":{"name":"Ahuʻailāʻau","country":"United States of America","website":null,"opening_hours":null,"capacity":null,"phone":null,"osmType":"node","osmId":5597908250}},{"type":"Feature","geometry":{"type":"Point","coordinates":[-155.24662,19.41374]},"properties":{"name":"Kīlauea Iki","country":"United States of America","website":null,"opening_hours":null,"capacity":null,"phone":null,"osmType":"node","osmId":9595328311}},{"type":"Feature","geometry":{"type":"Point","coordinates":[-155.62332,19.76009]},"properties":{"name":"Pu'ukea Crater","country":"United States of America","website":null,"opening_hours":null,"capacity":null,"phone":null,"osmType":"node","osmId":10225290028,"type":"scoria"}},{"type":"Feature","geometry":{"type":"Point","coordinates":[-155.264,19.40008]},"properties":{"name":"Keanakākoʻi Crater","country":"United States of America","website":null,"opening_hours":null,"capacity":null,"phone":null,"osmType":"node","osmId":11563538001}},{"type":"Feature","geometry":{"type":"Point","coordinates":[-155.25377,19.39853]},"properties":{"name":"Luamanu Crater","country":"United States of America","website":null,"opening_hours":null,"capacity":null,"phone":null,"osmType":"node","osmId":11580964820}},{"type":"Feature","geometry":{"type":"Point","coordinates":[-155.249,19.39282]},"properties":{"name":"Puhimau Crater","country":"United States of America","website":null,"opening_hours":null,"capacity":null,"phone":null,"osmType":"node","osmId":11580964821}},{"type":"Feature","geometry":{"type":"Point","coordinates":[-155.65717,19.87416]},"properties":{"name":null,"country":"United States of America","website":null,"opening_hours":null,"capacity":null,"phone":null,"osmType":"way","osmId":300265929,"type":"scoria"}},{"type":"Feature","geometry":{"type":"Point","coordinates":[-155.67165,19.85237]},"properties":{"name":null,"country":"United States of America","website":null,"opening_hours":null,"capacity":null,"phone":null,"osmType":"way","osmId":300265930,"type":"scoria"}},{"type":"Feature","geometry":{"type":"Point","coordinates":[-155.68968,19.89412]},"properties":{"name":null,"country":"United States of America","website":null,"opening_hours":null,"capacity":null,"phone":null,"osmType":"way","osmId":300265931,"type":"scoria"}},{"type":"Feature","geometry":{"type":"Point","coordinates":[-159.39026,56.19578]},"properties":{"name":"Cinder Cone","country":"United States of America","website":null,"opening_hours":null,"capacity":null,"phone":null,"osmType":"node","osmId":1587762486,"elevation":"2156"}},{"type":"Feature","geometry":{"type":"Point","coordinates":[-158.15139,56.88511]},"properties":{"name":"Vent Mountain","country":"United States of America","website":null,"opening_hours":null,"capacity":null,"phone":null,"osmType":"node","osmId":1591648533,"elevation":"1022"}},{"type":"Feature","geometry":{"type":"Point","coordinates":[-155.39531,58.15724]},"properties":{"name":"Alagogshak Volcano","country":"United States of America","website":null,"opening_hours":null,"capacity":null,"phone":null,"osmType":"node","osmId":1603891135}},{"type":"Feature","geometry":{"type":"Point","coordinates":[-155.25335,58.19466]},"properties":{"name":"Mount Mageik","country":"United States of America","website":null,"opening_hours":null,"capacity":null,"phone":null,"osmType":"node","osmId":1603891176,"elevation":"2165"}},{"type":"Feature","geometry":{"type":"Point","coordinates":[-155.35645,58.16878]},"properties":{"name":"Mount Martin","country":"United States of America","website":null,"opening_hours":null,"capacity":null,"phone":null,"osmType":"node","osmId":1603891180,"elevation":"1863"}},{"type":"Feature","geometry":{"type":"Point","coordinates":[-155.159,58.2654]},"properties":{"name":"Novarupta","country":"United States of America","website":null,"opening_hours":null,"capacity":null,"phone":null,"osmType":"node","osmId":1603891183,"elevation":"841"}},{"type":"Feature","geometry":{"type":"Point","coordinates":[-154.68542,58.33341]},"properties":{"name":"Snowy Mountain","country":"United States of America","website":null,"opening_hours":null,"capacity":null,"phone":null,"osmType":"node","osmId":1603891203,"elevation":"2162"}},{"type":"Feature","geometry":{"type":"Point","coordinates":[-155.10288,58.35675]},"properties":{"name":"Mount Griggs","country":"United States of America","website":null,"opening_hours":null,"capacity":null,"phone":null,"osmType":"node","osmId":1613347622,"elevation":"2317"}},{"type":"Feature","geometry":{"type":"Point","coordinates":[-156.36983,57.75056]},"properties":{"name":"Mount Peulik","country":"United States of America","website":null,"opening_hours":null,"capacity":null,"phone":null,"osmType":"node","osmId":1634717888,"elevation":"1474"}},{"type":"Feature","geometry":{"type":"Point","coordinates":[-154.3001,58.47529]},"properties":{"name":"Devils Desk","country":"United States of America","website":null,"opening_hours":null,"capacity":null,"phone":null,"osmType":"node","osmId":1681859996}},{"type":"Feature","geometry":{"type":"Point","coordinates":[-154.45072,58.41739]},"properties":{"name":"Mount Denison","country":"United States of America","website":null,"opening_hours":null,"capacity":null,"phone":null,"osmType":"node","osmId":1681860011,"elevation":"2318"}},{"type":"Feature","geometry":{"type":"Point","coordinates":[-154.35732,58.45237]},"properties":{"name":"Mount Kukak","country":"United States of America","website":null,"opening_hours":null,"capacity":null,"phone":null,"osmType":"node","osmId":1681860015,"elevation":"2043","type":"stratovolcano"}},{"type":"Feature","geometry":{"type":"Point","coordinates":[-154.39003,58.42995]},"properties":{"name":"Mount Steller","country":"United States of America","website":"https://www.avo.alaska.edu/volcanoes/volcinfo.php?volcname=steller","opening_hours":null,"capacity":null,"phone":null,"osmType":"node","osmId":1681860019,"elevation":"2272","type":"stratovolcano"}},{"type":"Feature","geometry":{"type":"Point","coordinates":[-153.63843,58.77606]},"properties":{"name":"Fourpeaked Mountain","country":"United States of America","website":null,"opening_hours":null,"capacity":null,"phone":null,"osmType":"node","osmId":1681873023,"elevation":"2104","type":"stratovolcano"}},{"type":"Feature","geometry":{"type":"Point","coordinates":[-153.53554,58.86012]},"properties":{"name":"Mount Douglas","country":"United States of America","website":null,"opening_hours":null,"capacity":null,"phone":null,"osmType":"node","osmId":1681873030,"elevation":"2140","type":"stratovolcano"}},{"type":"Feature","geometry":{"type":"Point","coordinates":[-163.7284,54.76783]},"properties":{"name":"Ragged Jack","country":"United States of America","website":"https://www.avo.alaska.edu/volcanoes/volcinfo.php?volcname=Isanotski","opening_hours":null,"capacity":null,"phone":null,"osmType":"node","osmId":2588520970,"elevation":"2470","type":"stratovolcano"}},{"type":"Feature","geometry":{"type":"Point","coordinates":[-163.96976,54.75634]},"properties":{"name":"Shishaldin Volcano","country":"United States of America","website":"https://www.avo.alaska.edu/volcanoes/volcinfo.php?volcname=Shishaldin","opening_hours":null,"capacity":null,"phone":null,"osmType":"node","osmId":2588521023,"elevation":"2857","type":"stratovolcano"}},{"type":"Feature","geometry":{"type":"Point","coordinates":[-163.59107,54.7995]},"properties":{"name":"Roundtop Mountain","country":"United States of America","website":"https://www.avo.alaska.edu/volcanoes/volcinfo.php?volcname=roundtop","opening_hours":null,"capacity":null,"phone":null,"osmType":"node","osmId":2588521096,"elevation":"1871"}},{"type":"Feature","geometry":{"type":"Point","coordinates":[-164.68511,54.52659]},"properties":{"name":"Faris Peak","country":"United States of America","website":"https://www.avo.alaska.edu/volcanoes/volcinfo.php?volcname=westdahl","opening_hours":null,"capacity":null,"phone":null,"osmType":"node","osmId":2599970948,"elevation":"1660","type":"shield"}},{"type":"Feature","geometry":{"type":"Point","coordinates":[-164.65061,54.51582]},"properties":{"name":"Westdahl Peak","country":"United States of America","website":"https://www.avo.alaska.edu/volcanoes/volcinfo.php?volcname=westdahl","opening_hours":null,"capacity":null,"phone":null,"osmType":"node","osmId":2599971518,"elevation":"1560","type":"shield"}},{"type":"Feature","geometry":{"type":"Point","coordinates":[-164.6915,54.56969]},"properties":{"name":"Pogromni Volcano","country":"United States of America","website":"https://www.avo.alaska.edu/volcanoes/volcinfo.php?volcname=westdahl","opening_hours":null,"capacity":null,"phone":null,"osmType":"node","osmId":2599971783,"elevation":"2001","type":"stratovolcano"}},{"type":"Feature","geometry":{"type":"Point","coordinates":[-161.89324,55.41695]},"properties":{"name":"Pavlof Volcano","country":"United States of America","website":"https://www.avo.alaska.edu/volcanoes/volcinfo.php?volcname=pavlof","opening_hours":null,"capacity":null,"phone":null,"osmType":"node","osmId":4082379420,"elevation":"2518","type":"stratovolcano"}},{"type":"Feature","geometry":{"type":"Point","coordinates":[-158.12781,56.85928]},"properties":{"name":"Aniakchak Peak","country":"United States of America","website":null,"opening_hours":null,"capacity":null,"phone":null,"osmType":"node","osmId":5111933673,"elevation":"1356","type":"stratovolcano"}},{"type":"Feature","geometry":{"type":"Point","coordinates":[-158.21138,56.90473]},"properties":{"name":"1931 Eruption Crater","country":"United States of America","website":null,"opening_hours":null,"capacity":null,"phone":null,"osmType":"node","osmId":5111935738}},{"type":"Feature","geometry":{"type":"Point","coordinates":[-158.19037,56.92015]},"properties":{"name":"Half Cone","country":"United States of America","website":null,"opening_hours":null,"capacity":null,"phone":null,"osmType":"node","osmId":5111957300}},{"type":"Feature","geometry":{"type":"Point","coordinates":[-162.83178,55.06849]},"properties":{"name":"Frosty Peak","country":"United States of America","website":null,"opening_hours":null,"capacity":null,"phone":null,"osmType":"node","osmId":5237148503,"elevation":"1920","type":"stratovolcano"}},{"type":"Feature","geometry":{"type":"Point","coordinates":[-162.82917,55.01128]},"properties":{"name":"Morzhovoi Volcano","country":"United States of America","website":"https://www.avo.alaska.edu/volcanoes/volcinfo.php?volcname=morzhovoi","opening_hours":null,"capacity":null,"phone":null,"osmType":"node","osmId":5237148504,"elevation":"822","type":"stratovolcano"}},{"type":"Feature","geometry":{"type":"Point","coordinates":[-162.28336,55.18605]},"properties":{"name":"Mount Dutton","country":"United States of America","website":"https://www.avo.alaska.edu/volcanoes/volcinfo.php?volcname=dutton","opening_hours":null,"capacity":null,"phone":null,"osmType":"node","osmId":5285417220,"elevation":"1473","type":"stratovolcano"}},{"type":"Feature","geometry":{"type":"Point","coordinates":[-161.85401,55.45718]},"properties":{"name":"Pavlof Sister","country":"United States of America","website":"https://avo.alaska.edu/volcanoes/volcinfo.php?volcname=Pavlof%20Sister","opening_hours":null,"capacity":null,"phone":null,"osmType":"node","osmId":5299152665,"elevation":"2142","type":"stratovolcano"}},{"type":"Feature","geometry":{"type":"Point","coordinates":[-164.37746,54.69895]},"properties":{"name":"Fisher Caldera (Lakes)","country":"United States of America","website":"https://www.avo.alaska.edu/volcanoes/volcinfo.php?volcname=fisher","opening_hours":null,"capacity":null,"phone":null,"osmType":"node","osmId":5314674202,"elevation":"180","type":"stratovolcano"}},{"type":"Feature","geometry":{"type":"Point","coordinates":[-164.36495,54.66816]},"properties":{"name":"Nick's Cone Fisher's Caldera","country":"United States of America","website":null,"opening_hours":null,"capacity":null,"phone":null,"osmType":"node","osmId":5314742848,"elevation":"400"}},{"type":"Feature","geometry":{"type":"Point","coordinates":[-161.9803,55.37426]},"properties":{"name":"Double Crater","country":"United States of America","website":"https://avo.alaska.edu/volcanoes/volcinfo.php?volcname=Double%20Crater","opening_hours":null,"capacity":null,"phone":null,"osmType":"node","osmId":5327661930,"elevation":"1463","type":"stratovolcano"}},{"type":"Feature","geometry":{"type":"Point","coordinates":[-161.94585,55.39225]},"properties":{"name":"Little Pavlof","country":"United States of America","website":"https://avo.alaska.edu/volcanoes/volcinfo.php?volcname=Little%20Pavlof","opening_hours":null,"capacity":null,"phone":null,"osmType":"node","osmId":5327667491,"elevation":"1861","type":"stratovolcano"}},{"type":"Feature","geometry":{"type":"Point","coordinates":[-161.99984,55.37144]},"properties":{"name":"Mount Hague","country":"United States of America","website":"https://avo.alaska.edu/volcanoes/volcinfo.php?volcname=Hague,%20Mt","opening_hours":null,"capacity":null,"phone":null,"osmType":"node","osmId":5327685664,"elevation":"1341","type":"stratovolcano"}},{"type":"Feature","geometry":{"type":"Point","coordinates":[-159.39053,56.19575]},"properties":{"name":"Mount Veniaminof","country":"United States of America","website":"https://www.avo.alaska.edu/volcanoes/volcinfo.php?volcname=veniaminof","opening_hours":null,"capacity":null,"phone":null,"osmType":"node","osmId":5879736016,"type":"stratovolcano"}},{"type":"Feature","geometry":{"type":"Point","coordinates":[-155.1026,58.2343]},"properties":{"name":"Trident Volcano","country":"United States of America","website":null,"opening_hours":null,"capacity":null,"phone":null,"osmType":"node","osmId":5940338948,"elevation":"1864"}},{"type":"Feature","geometry":{"type":"Point","coordinates":[-154.95333,58.27889]},"properties":{"name":"Mount Katmai","country":"United States of America","website":null,"opening_hours":null,"capacity":null,"phone":null,"osmType":"node","osmId":5940338949,"elevation":"2047"}},{"type":"Feature","geometry":{"type":"Point","coordinates":[-154.0245,58.6113]},"properties":{"name":"Mount Kaguyak","country":"United States of America","website":null,"opening_hours":null,"capacity":null,"phone":null,"osmType":"node","osmId":5941597186,"elevation":"901"}},{"type":"Feature","geometry":{"type":"Point","coordinates":[-154.79084,58.60733]},"properties":{"name":null,"country":"United States of America","website":null,"opening_hours":null,"capacity":null,"phone":null,"osmType":"node","osmId":5941597187,"elevation":"494"}},{"type":"Feature","geometry":{"type":"Point","coordinates":[-154.5435,58.5745]},"properties":{"name":"Cone 3110","country":"United States of America","website":null,"opening_hours":null,"capacity":null,"phone":null,"osmType":"node","osmId":5941597247}},{"type":"Feature","geometry":{"type":"Point","coordinates":[-156.98666,57.13388]},"properties":{"name":"Mount Chiginagak","country":"United States of America","website":null,"opening_hours":null,"capacity":null,"phone":null,"osmType":"node","osmId":6051478611,"elevation":"2111"}},{"type":"Feature","geometry":{"type":"Point","coordinates":[-162.07408,55.34169]},"properties":{"name":"Mount Emmons","country":"United States of America","website":"https://www.avo.alaska.edu/volcanoes/volcinfo.php?volcname=emmons%20lake%20volcanic%20center","opening_hours":null,"capacity":null,"phone":null,"osmType":"node","osmId":6253670453,"elevation":"1465","type":"stratovolcano"}},{"type":"Feature","geometry":{"type":"Point","coordinates":[-162.39774,55.12605]},"properties":{"name":null,"country":"United States of America","website":null,"opening_hours":null,"capacity":null,"phone":null,"osmType":"node","osmId":6571834175}},{"type":"Feature","geometry":{"type":"Point","coordinates":[-161.92472,55.55678]},"properties":{"name":"Trader Mountain Volcano","country":"United States of America","website":null,"opening_hours":null,"capacity":null,"phone":null,"osmType":"node","osmId":6578001375,"elevation":"785","type":"stratovolcano"}},{"type":"Feature","geometry":{"type":"Point","coordinates":[-162.85305,54.98006]},"properties":{"name":"North Walrus Peak","country":"United States of America","website":null,"opening_hours":null,"capacity":null,"phone":null,"osmType":"node","osmId":6578010736,"elevation":"893","type":"stratovolcano"}},{"type":"Feature","geometry":{"type":"Point","coordinates":[-162.84688,54.97705]},"properties":{"name":"South Walrus Peak","country":"United States of America","website":null,"opening_hours":null,"capacity":null,"phone":null,"osmType":"node","osmId":6578010737,"elevation":"892","type":"stratovolcano"}},{"type":"Feature","geometry":{"type":"Point","coordinates":[-161.21109,55.63298]},"properties":{"name":"Mount Dana","country":"United States of America","website":null,"opening_hours":null,"capacity":null,"phone":null,"osmType":"node","osmId":6578018555,"elevation":"1354"}},{"type":"Feature","geometry":{"type":"Point","coordinates":[-156.88877,57.03157]},"properties":{"name":null,"country":"United States of America","website":null,"opening_hours":null,"capacity":null,"phone":null,"osmType":"node","osmId":6579583625}},{"type":"Feature","geometry":{"type":"Point","coordinates":[-161.02879,55.6411]},"properties":{"name":null,"country":"United States of America","website":null,"opening_hours":null,"capacity":null,"phone":null,"osmType":"node","osmId":6579618713}},{"type":"Feature","geometry":{"type":"Point","coordinates":[-160.99457,55.64364]},"properties":{"name":null,"country":"United States of America","website":null,"opening_hours":null,"capacity":null,"phone":null,"osmType":"node","osmId":6579618715}},{"type":"Feature","geometry":{"type":"Point","coordinates":[-158.14759,56.90277]},"properties":{"name":"Mount Aniakchak","country":"United States of America","website":null,"opening_hours":null,"capacity":null,"phone":null,"osmType":"node","osmId":7493943522,"elevation":"1290"}},{"type":"Feature","geometry":{"type":"Point","coordinates":[-157.18602,57.01762]},"properties":{"name":"Yantarni Volcano","country":"United States of America","website":null,"opening_hours":null,"capacity":null,"phone":null,"osmType":"node","osmId":11658181680,"elevation":"1337","type":"stratovolcano"}},{"type":"Feature","geometry":{"type":"Point","coordinates":[-159.29733,56.21903]},"properties":{"name":"Mount Veniaminof HP","country":"United States of America","website":"https://www.avo.alaska.edu/volcanoes/volcinfo.php?volcname=veniaminof","opening_hours":null,"capacity":null,"phone":null,"osmType":"node","osmId":11817369828,"elevation":"2507"}},{"type":"Feature","geometry":{"type":"Point","coordinates":[-156.51383,57.8339]},"properties":{"name":"Ukinrek Maars","country":"United States of America","website":null,"opening_hours":null,"capacity":null,"phone":null,"osmType":"node","osmId":12615216424,"elevation":"91"}},{"type":"Feature","geometry":{"type":"Point","coordinates":[-121.52907,41.73813]},"properties":{"name":"Schonchin Butte","country":"United States of America","website":null,"opening_hours":null,"capacity":null,"phone":null,"osmType":"node","osmId":33113071,"elevation":"1618","type":"scoria"}},{"type":"Feature","geometry":{"type":"Point","coordinates":[-121.55369,41.73756]},"properties":{"name":"Bat Butte","country":"United States of America","website":null,"opening_hours":null,"capacity":null,"phone":null,"osmType":"node","osmId":59948749,"elevation":"1485","type":"scoria"}},{"type":"Feature","geometry":{"type":"Point","coordinates":[-121.5253,41.7669]},"properties":{"name":"Hardin Butte","country":"United States of America","website":null,"opening_hours":null,"capacity":null,"phone":null,"osmType":"node","osmId":59949181,"elevation":"1362","type":"scoria"}},{"type":"Feature","geometry":{"type":"Point","coordinates":[-121.53151,41.71428]},"properties":{"name":"Hippo Butte","country":"United States of America","website":null,"opening_hours":null,"capacity":null,"phone":null,"osmType":"node","osmId":59949966,"elevation":"1671","type":"scoria"}},{"type":"Feature","geometry":{"type":"Point","coordinates":[-121.5297,41.70238]},"properties":{"name":"Red Butte","country":"United States of America","website":null,"opening_hours":null,"capacity":null,"phone":null,"osmType":"node","osmId":59949967,"elevation":"1618","type":"scoria"}},{"type":"Feature","geometry":{"type":"Point","coordinates":[-121.55309,41.72293]},"properties":{"name":"Bearpaw Butte","country":"United States of America","website":null,"opening_hours":null,"capacity":null,"phone":null,"osmType":"node","osmId":59949968,"elevation":"1627","type":"scoria"}},{"type":"Feature","geometry":{"type":"Point","coordinates":[-121.51557,41.71787]},"properties":{"name":"Crescent Butte","country":"United States of America","website":null,"opening_hours":null,"capacity":null,"phone":null,"osmType":"node","osmId":59949969,"elevation":"1530","type":"scoria"}},{"type":"Feature","geometry":{"type":"Point","coordinates":[-121.4808,41.69834]},"properties":{"name":"Caldwell Butte","country":"United States of America","website":null,"opening_hours":null,"capacity":null,"phone":null,"osmType":"node","osmId":59949971,"elevation":"1582","type":"scoria"}},{"type":"Feature","geometry":{"type":"Point","coordinates":[-121.48313,41.70595]},"properties":{"name":"Caldwell Minor","country":"United States of America","website":null,"opening_hours":null,"capacity":null,"phone":null,"osmType":"node","osmId":59949972,"type":"scoria"}},{"type":"Feature","geometry":{"type":"Point","coordinates":[-121.47269,41.7438]},"properties":{"name":"Three Sisters","country":"United States of America","website":null,"opening_hours":null,"capacity":null,"phone":null,"osmType":"node","osmId":59949973,"elevation":"1383","type":"scoria"}},{"type":"Feature","geometry":{"type":"Point","coordinates":[-121.54803,41.69243]},"properties":{"name":"Mammoth Crater","country":"United States of America","website":null,"opening_hours":null,"capacity":null,"phone":null,"osmType":"node","osmId":59949980,"type":"scoria"}},{"type":"Feature","geometry":{"type":"Point","coordinates":[-121.59219,41.73892]},"properties":{"name":"Whitney Butte","country":"United States of America","website":null,"opening_hours":null,"capacity":null,"phone":null,"osmType":"node","osmId":59950603,"elevation":"1527","type":"scoria"}},{"type":"Feature","geometry":{"type":"Point","coordinates":[-121.59167,41.69559]},"properties":{"name":"Island Butte","country":"United States of America","website":null,"opening_hours":null,"capacity":null,"phone":null,"osmType":"node","osmId":59950608,"elevation":"1685","type":"scoria"}},{"type":"Feature","geometry":{"type":"Point","coordinates":[-121.56746,41.70347]},"properties":{"name":"Eagle Nest Butte","country":"United States of America","website":null,"opening_hours":null,"capacity":null,"phone":null,"osmType":"node","osmId":59950609,"elevation":"1669","type":"scoria"}},{"type":"Feature","geometry":{"type":"Point","coordinates":[-121.81457,48.77677]},"properties":{"name":"Mount Baker","country":"United States of America","website":null,"opening_hours":null,"capacity":null,"phone":null,"osmType":"node","osmId":268503104,"elevation":"3287"}},{"type":"Feature","geometry":{"type":"Point","coordinates":[-121.50492,40.48813]},"properties":{"name":"Lassen Peak","country":"United States of America","website":null,"opening_hours":null,"capacity":null,"phone":null,"osmType":"node","osmId":320129927,"elevation":"3187","type":"stratovolcano"}},{"type":"Feature","geometry":{"type":"Point","coordinates":[-121.83222,45.91464]},"properties":{"name":"The Wart","country":"United States of America","website":null,"opening_hours":null,"capacity":null,"phone":null,"osmType":"node","osmId":348198721,"elevation":"1125"}},{"type":"Feature","geometry":{"type":"Point","coordinates":[-122.15204,46.19734]},"properties":{"name":"East Dome","country":"United States of America","website":null,"opening_hours":null,"capacity":null,"phone":null,"osmType":"node","osmId":348198787,"elevation":"1619.7"}},{"type":"Feature","geometry":{"type":"Point","coordinates":[-121.58119,45.74588]},"properties":{"name":"Underwood Mountain","country":"United States of America","website":null,"opening_hours":null,"capacity":null,"phone":null,"osmType":"node","osmId":348198807,"elevation":"840"}},{"type":"Feature","geometry":{"type":"Point","coordinates":[-122.23408,46.16973]},"properties":{"name":null,"country":"United States of America","website":null,"opening_hours":null,"capacity":null,"phone":null,"osmType":"node","osmId":348198883,"elevation":"1382"}},{"type":"Feature","geometry":{"type":"Point","coordinates":[-121.83925,46.05456]},"properties":{"name":"Lone Butte","country":"United States of America","website":null,"opening_hours":null,"capacity":null,"phone":null,"osmType":"node","osmId":348198901,"elevation":"1453"}},{"type":"Feature","geometry":{"type":"Point","coordinates":[-120.95313,46.18235]},"properties":{"name":"Simon Butte","country":"United States of America","website":null,"opening_hours":null,"capacity":null,"phone":null,"osmType":"node","osmId":348816331,"elevation":"1215"}},{"type":"Feature","geometry":{"type":"Point","coordinates":[-120.87174,46.05762]},"properties":{"name":"Stagman Butte","country":"United States of America","website":null,"opening_hours":null,"capacity":null,"phone":null,"osmType":"node","osmId":348817397,"elevation":"1575"}},{"type":"Feature","geometry":{"type":"Point","coordinates":[-120.90424,46.10068]},"properties":{"name":"Sheep Butte","country":"United States of America","website":null,"opening_hours":null,"capacity":null,"phone":null,"osmType":"node","osmId":348818147,"elevation":"1349"}},{"type":"Feature","geometry":{"type":"Point","coordinates":[-121.46341,46.07484]},"properties":{"name":"Smith Butte","country":"United States of America","website":null,"opening_hours":null,"capacity":null,"phone":null,"osmType":"node","osmId":348818393,"elevation":"1319"}},{"type":"Feature","geometry":{"type":"Point","coordinates":[-120.94063,46.14873]},"properties":{"name":"McKays Butte","country":"United States of America","website":null,"opening_hours":null,"capacity":null,"phone":null,"osmType":"node","osmId":348819286,"elevation":"1231"}},{"type":"Feature","geometry":{"type":"Point","coordinates":[-121.41147,46.0129]},"properties":{"name":"Meadow Butte","country":"United States of America","website":null,"opening_hours":null,"capacity":null,"phone":null,"osmType":"node","osmId":348964404,"elevation":"1091"}},{"type":"Feature","geometry":{"type":"Point","coordinates":[-120.7934,45.80096]},"properties":{"name":"Lorena Butte","country":"United States of America","website":null,"opening_hours":null,"capacity":null,"phone":null,"osmType":"node","osmId":348964413,"elevation":"680"}},{"type":"Feature","geometry":{"type":"Point","coordinates":[-120.96368,45.96096]},"properties":{"name":"White Pine Buttes","country":"United States of America","website":null,"opening_hours":null,"capacity":null,"phone":null,"osmType":"node","osmId":348964423,"elevation":"980"}},{"type":"Feature","geometry":{"type":"Point","coordinates":[-120.97118,45.88623]},"properties":{"name":"Counts Butte","country":"United States of America","website":null,"opening_hours":null,"capacity":null,"phone":null,"osmType":"node","osmId":348964543,"elevation":"647"}},{"type":"Feature","geometry":{"type":"Point","coordinates":[-121.49369,45.97762]},"properties":{"name":"Little Mountain","country":"United States of America","website":null,"opening_hours":null,"capacity":null,"phone":null,"osmType":"node","osmId":348964580,"elevation":"632"}},{"type":"Feature","geometry":{"type":"Point","coordinates":[-120.97868,46.00346]},"properties":{"name":"Kaiser Butte","country":"United States of America","website":null,"opening_hours":null,"capacity":null,"phone":null,"osmType":"node","osmId":348964695,"elevation":"1272"}},{"type":"Feature","geometry":{"type":"Point","coordinates":[-120.90896,45.8904]},"properties":{"name":"Gunn Butte","country":"United States of America","website":null,"opening_hours":null,"capacity":null,"phone":null,"osmType":"node","osmId":348964761,"elevation":"675"}},{"type":"Feature","geometry":{"type":"Point","coordinates":[-121.16492,48.05122]},"properties":{"name":"White Chuck Cinder Cone","country":"United States of America","website":null,"opening_hours":null,"capacity":null,"phone":null,"osmType":"node","osmId":348999648,"elevation":"1827","type":"scoria"}},{"type":"Feature","geometry":{"type":"Point","coordinates":[-120.94674,45.93568]},"properties":{"name":"Black Butte","country":"United States of America","website":null,"opening_hours":null,"capacity":null,"phone":null,"osmType":"node","osmId":356539718,"elevation":"933"}},{"type":"Feature","geometry":{"type":"Point","coordinates":[-120.97924,46.05346]},"properties":{"name":"Hagerty Butte","country":"United States of America","website":null,"opening_hours":null,"capacity":null,"phone":null,"osmType":"node","osmId":356540220,"elevation":"1098"}},{"type":"Feature","geometry":{"type":"Point","coordinates":[-120.88618,45.90735]},"properties":{"name":"Jackknife Butte","country":"United States of America","website":null,"opening_hours":null,"capacity":null,"phone":null,"osmType":"node","osmId":356540342,"elevation":"881"}},{"type":"Feature","geometry":{"type":"Point","coordinates":[-121.1373,46.22707]},"properties":{"name":"Signal Peak","country":"United States of America","website":null,"opening_hours":null,"capacity":null,"phone":null,"osmType":"node","osmId":356541255,"elevation":"1555"}},{"type":"Feature","geometry":{"type":"Point","coordinates":[-120.94479,45.8529]},"properties":{"name":"Blockhouse Butte","country":"United States of America","website":null,"opening_hours":null,"capacity":null,"phone":null,"osmType":"node","osmId":356541932,"elevation":"609"}},{"type":"Feature","geometry":{"type":"Point","coordinates":[-121.49095,46.2024]},"properties":{"name":"Mount Adams","country":"United States of America","website":null,"opening_hours":null,"capacity":null,"phone":null,"osmType":"node","osmId":356544063,"elevation":"3743.4"}},{"type":"Feature","geometry":{"type":"Point","coordinates":[-121.93983,45.87608]},"properties":{"name":"Big Butte","country":"United States of America","website":null,"opening_hours":null,"capacity":null,"phone":null,"osmType":"node","osmId":356544298,"elevation":"1025"}},{"type":"Feature","geometry":{"type":"Point","coordinates":[-121.45369,46.09012]},"properties":{"name":"Bunnell Butte","country":"United States of America","website":null,"opening_hours":null,"capacity":null,"phone":null,"osmType":"node","osmId":356544451,"elevation":"1245"}},{"type":"Feature","geometry":{"type":"Point","coordinates":[-121.61397,46.02817]},"properties":{"name":"Flattop Mountain","country":"United States of America","website":null,"opening_hours":null,"capacity":null,"phone":null,"osmType":"node","osmId":356544937,"elevation":"1347"}},{"type":"Feature","geometry":{"type":"Point","coordinates":[-121.11405,48.11186]},"properties":{"name":"Glacier Peak","country":"United States of America","website":null,"opening_hours":null,"capacity":null,"phone":null,"osmType":"node","osmId":356545020,"elevation":"3214","type":"stratovolcano"}},{"type":"Feature","geometry":{"type":"Point","coordinates":[-121.75991,46.01846]},"properties":{"name":"Lemei Rock","country":"United States of America","website":null,"opening_hours":null,"capacity":null,"phone":null,"osmType":"node","osmId":356545613,"elevation":"1805.9"}},{"type":"Feature","geometry":{"type":"Point","coordinates":[-121.41786,46.16984]},"properties":{"name":"Little Mount Adams","country":"United States of America","website":null,"opening_hours":null,"capacity":null,"phone":null,"osmType":"node","osmId":356545674,"elevation":"2065","type":"scoria"}},{"type":"Feature","geometry":{"type":"Point","coordinates":[-121.50119,46.33317]},"properties":{"name":"Potato Hill","country":"United States of America","website":null,"opening_hours":null,"capacity":null,"phone":null,"osmType":"node","osmId":356546148,"elevation":"1639"}},{"type":"Feature","geometry":{"type":"Point","coordinates":[-121.40369,45.98568]},"properties":{"name":"Quigley Butte","country":"United States of America","website":null,"opening_hours":null,"capacity":null,"phone":null,"osmType":"node","osmId":356546194,"elevation":"983"}},{"type":"Feature","geometry":{"type":"Point","coordinates":[-121.38536,46.02429]},"properties":{"name":"Red Butte","country":"United States of America","website":null,"opening_hours":null,"capacity":null,"phone":null,"osmType":"node","osmId":356546218,"elevation":"947"}},{"type":"Feature","geometry":{"type":"Point","coordinates":[-121.45941,46.24635]},"properties":{"name":"Red Butte","country":"United States of America","website":null,"opening_hours":null,"capacity":null,"phone":null,"osmType":"node","osmId":356546219,"elevation":"2171"}},{"type":"Feature","geometry":{"type":"Point","coordinates":[-121.82103,45.93484]},"properties":{"name":"Red Mountain","country":"United States of America","website":null,"opening_hours":null,"capacity":null,"phone":null,"osmType":"node","osmId":356546227,"elevation":"1513"}},{"type":"Feature","geometry":{"type":"Point","coordinates":[-122.19553,46.19139]},"properties":{"name":"Mount Saint Helens","country":"United States of America","website":null,"opening_hours":null,"capacity":null,"phone":null,"osmType":"node","osmId":356546327,"elevation":"2549","type":"stratovolcano"}},{"type":"Feature","geometry":{"type":"Point","coordinates":[-121.46064,46.10595]},"properties":{"name":"Snipes Mountain","country":"United States of America","website":null,"opening_hours":null,"capacity":null,"phone":null,"osmType":"node","osmId":356546472,"elevation":"1445"}},{"type":"Feature","geometry":{"type":"Point","coordinates":[-121.99491,45.83632]},"properties":{"name":"Trout Creek Hill","country":"United States of America","website":null,"opening_hours":null,"capacity":null,"phone":null,"osmType":"node","osmId":356546815,"elevation":"898"}},{"type":"Feature","geometry":{"type":"Point","coordinates":[-121.9484,44.41956]},"properties":{"name":"Nash Crater","country":"United States of America","website":null,"opening_hours":null,"capacity":null,"phone":null,"osmType":"node","osmId":357285132,"elevation":"1439"}},{"type":"Feature","geometry":{"type":"Point","coordinates":[-121.92804,44.38476]},"properties":{"name":"Sand Mountain","country":"United States of America","website":null,"opening_hours":null,"capacity":null,"phone":null,"osmType":"node","osmId":357287855,"elevation":"1664"}},{"type":"Feature","geometry":{"type":"Point","coordinates":[-122.08752,42.31542]},"properties":{"name":"Aspen Butte","country":"United States of America","website":null,"opening_hours":null,"capacity":null,"phone":null,"osmType":"node","osmId":357306509,"elevation":"2503","type":"shield"}},{"type":"Feature","geometry":{"type":"Point","coordinates":[-121.68851,43.97938]},"properties":{"name":"Mount Bachelor","country":"United States of America","website":null,"opening_hours":null,"capacity":null,"phone":null,"osmType":"node","osmId":357306545,"elevation":"2764","type":"stratovolcano"}},{"type":"Feature","geometry":{"type":"Point","coordinates":[-121.92003,43.3929]},"properties":{"name":"Beales Butte","country":"United States of America","website":null,"opening_hours":null,"capacity":null,"phone":null,"osmType":"node","osmId":357306891,"elevation":"1784"}},{"type":"Feature","geometry":{"type":"Point","coordinates":[-121.84226,44.2848]},"properties":{"name":"Belknap Crater","country":"United States of America","website":null,"opening_hours":null,"capacity":null,"phone":null,"osmType":"node","osmId":357306976,"elevation":"2094.586"}},{"type":"Feature","geometry":{"type":"Point","coordinates":[-121.80253,43.8529]},"properties":{"name":"Bench Mark Butte","country":"United States of America","website":null,"opening_hours":null,"capacity":null,"phone":null,"osmType":"node","osmId":357306981,"elevation":"1530"}},{"type":"Feature","geometry":{"type":"Point","coordinates":[-121.63646,44.40008]},"properties":{"name":"Black Butte","country":"United States of America","website":null,"opening_hours":null,"capacity":null,"phone":null,"osmType":"node","osmId":357307133,"elevation":"1937"}},{"type":"Feature","geometry":{"type":"Point","coordinates":[-121.81339,43.48189]},"properties":{"name":"Black Rock Butte","country":"United States of America","website":null,"opening_hours":null,"capacity":null,"phone":null,"osmType":"node","osmId":357307241,"elevation":"1492.91"}},{"type":"Feature","geometry":{"type":"Point","coordinates":[-121.18658,43.63967]},"properties":{"name":"Box Butte","country":"United States of America","website":null,"opening_hours":null,"capacity":null,"phone":null,"osmType":"node","osmId":357307368,"elevation":"2042.16"}},{"type":"Feature","geometry":{"type":"Point","coordinates":[-121.6994,44.08296]},"properties":{"name":"Broken Top","country":"United States of America","website":null,"opening_hours":null,"capacity":null,"phone":null,"osmType":"node","osmId":357307411,"elevation":"2795.93"}},{"type":"Feature","geometry":{"type":"Point","coordinates":[-122.27141,42.36347]},"properties":{"name":"Brown Mountain","country":"United States of America","website":null,"opening_hours":null,"capacity":null,"phone":null,"osmType":"node","osmId":357307414,"elevation":"2228"}},{"type":"Feature","geometry":{"type":"Point","coordinates":[-121.0339,43.68068]},"properties":{"name":"China Hat","country":"United States of America","website":null,"opening_hours":null,"capacity":null,"phone":null,"osmType":"node","osmId":357308001,"elevation":"2004"}},{"type":"Feature","geometry":{"type":"Point","coordinates":[-121.12463,43.65061]},"properties":{"name":"Cinder Cone","country":"United States of America","website":null,"opening_hours":null,"capacity":null,"phone":null,"osmType":"node","osmId":357308051,"elevation":"1847.088"}},{"type":"Feature","geometry":{"type":"Point","coordinates":[-121.78444,44.18872]},"properties":{"name":"Collier Cone","country":"United States of America","website":null,"opening_hours":null,"capacity":null,"phone":null,"osmType":"node","osmId":357308208,"elevation":"2296","type":"scoria"}},{"type":"Feature","geometry":{"type":"Point","coordinates":[-121.1528,43.80012]},"properties":{"name":"Company Butte","country":"United States of America","website":null,"opening_hours":null,"capacity":null,"phone":null,"osmType":"node","osmId":357308234,"elevation":"1844"}},{"type":"Feature","geometry":{"type":"Point","coordinates":[-121.65975,43.81512]},"properties":{"name":"Dry Butte","country":"United States of America","website":null,"opening_hours":null,"capacity":null,"phone":null,"osmType":"node","osmId":357308902,"elevation":"1539"}},{"type":"Feature","geometry":{"type":"Point","coordinates":[-121.59892,43.93845]},"properties":{"name":"Edison Butte","country":"United States of America","website":null,"opening_hours":null,"capacity":null,"phone":null,"osmType":"node","osmId":357309072,"elevation":"1673"}},{"type":"Feature","geometry":{"type":"Point","coordinates":[-121.69208,44.35177]},"properties":{"name":"Fivemile Butte","country":"United States of America","website":null,"opening_hours":null,"capacity":null,"phone":null,"osmType":"node","osmId":357309328,"elevation":"1237"}},{"type":"Feature","geometry":{"type":"Point","coordinates":[-121.81177,44.2081]},"properties":{"name":"Four in One Cone","country":"United States of America","website":null,"opening_hours":null,"capacity":null,"phone":null,"osmType":"node","osmId":357309425,"elevation":"1893","type":"scoria"}},{"type":"Feature","geometry":{"type":"Point","coordinates":[-121.67866,44.31512]},"properties":{"name":"Fourmile Butte","country":"United States of America","website":null,"opening_hours":null,"capacity":null,"phone":null,"osmType":"node","osmId":357309428,"elevation":"1235"}},{"type":"Feature","geometry":{"type":"Point","coordinates":[-121.2092,43.86595]},"properties":{"name":"Fuzztail Butte","country":"United States of America","website":null,"opening_hours":null,"capacity":null,"phone":null,"osmType":"node","osmId":357309546,"elevation":"1715"}},{"type":"Feature","geometry":{"type":"Point","coordinates":[-121.68663,44.32825]},"properties":{"name":"Graham Butte","country":"United States of America","website":null,"opening_hours":null,"capacity":null,"phone":null,"osmType":"node","osmId":357309767,"elevation":"1292.352"}},{"type":"Feature","geometry":{"type":"Point","coordinates":[-121.69588,45.37351]},"properties":{"name":"Mount Hood","country":"United States of America","website":null,"opening_hours":null,"capacity":null,"phone":null,"osmType":"node","osmId":357310459,"elevation":"3429","type":"stratovolcano"}},{"type":"Feature","geometry":{"type":"Point","coordinates":[-121.23006,43.97752]},"properties":{"name":"Horse Butte","country":"United States of America","website":null,"opening_hours":null,"capacity":null,"phone":null,"osmType":"node","osmId":357310498,"elevation":"1289.304","type":"scoria"}},{"type":"Feature","geometry":{"type":"Point","coordinates":[-121.2768,43.8575]},"properties":{"name":"Ikt Butte","country":"United States of America","website":null,"opening_hours":null,"capacity":null,"phone":null,"osmType":"node","osmId":357310670,"elevation":"1685"}},{"type":"Feature","geometry":{"type":"Point","coordinates":[-121.79959,44.67433]},"properties":{"name":"Mount Jefferson","country":"United States of America","website":null,"opening_hours":null,"capacity":null,"phone":null,"osmType":"node","osmId":357311157,"elevation":"3201"}},{"type":"Feature","geometry":{"type":"Point","coordinates":[-121.57772,43.95471]},"properties":{"name":"Katalo Butte","country":"United States of America","website":null,"opening_hours":null,"capacity":null,"phone":null,"osmType":"node","osmId":357311311,"elevation":"1839.8"}},{"type":"Feature","geometry":{"type":"Point","coordinates":[-121.7585,44.01817]},"properties":{"name":"Katsuk Butte","country":"United States of America","website":null,"opening_hours":null,"capacity":null,"phone":null,"osmType":"node","osmId":357311317,"elevation":"1879.092"}},{"type":"Feature","geometry":{"type":"Point","coordinates":[-121.24308,43.90095]},"properties":{"name":"Kelsey Butte","country":"United States of America","website":null,"opening_hours":null,"capacity":null,"phone":null,"osmType":"node","osmId":357311369,"elevation":"1639","type":"scoria"}},{"type":"Feature","geometry":{"type":"Point","coordinates":[-121.52198,43.9565]},"properties":{"name":"Kiwa Butte","country":"United States of America","website":null,"opening_hours":null,"capacity":null,"phone":null,"osmType":"node","osmId":357311444,"elevation":"1799"}},{"type":"Feature","geometry":{"type":"Point","coordinates":[-121.61064,43.86641]},"properties":{"name":"Klak Butte","country":"United States of America","website":null,"opening_hours":null,"capacity":null,"phone":null,"osmType":"node","osmId":357311449,"elevation":"1475.842"}},{"type":"Feature","geometry":{"type":"Point","coordinates":[-121.2778,43.81456]},"properties":{"name":"Klone Butte","country":"United States of America","website":null,"opening_hours":null,"capacity":null,"phone":null,"osmType":"node","osmId":357311467,"elevation":"1854"}},{"type":"Feature","geometry":{"type":"Point","coordinates":[-121.19908,43.64139]},"properties":{"name":"Kweo Butte","country":"United States of America","website":null,"opening_hours":null,"capacity":null,"phone":null,"osmType":"node","osmId":357311517,"elevation":"2094.89"}},{"type":"Feature","geometry":{"type":"Point","coordinates":[-121.24669,43.80262]},"properties":{"name":"Kwinnum Butte","country":"United States of America","website":null,"opening_hours":null,"capacity":null,"phone":null,"osmType":"node","osmId":357311521,"elevation":"1964"}},{"type":"Feature","geometry":{"type":"Point","coordinates":[-121.67796,43.95115]},"properties":{"name":"Kwolh Butte","country":"United States of America","website":null,"opening_hours":null,"capacity":null,"phone":null,"osmType":"node","osmId":357311526,"elevation":"2242.718","type":"scoria"}},{"type":"Feature","geometry":{"type":"Point","coordinates":[-121.20395,43.87378]},"properties":{"name":"Lava Top Butte","country":"United States of America","website":null,"opening_hours":null,"capacity":null,"phone":null,"osmType":"node","osmId":357311623,"elevation":"1711"}},{"type":"Feature","geometry":{"type":"Point","coordinates":[-121.80183,44.05844]},"properties":{"name":"Le Conte Crater","country":"United States of America","website":null,"opening_hours":null,"capacity":null,"phone":null,"osmType":"node","osmId":357311636,"elevation":"2013.509"}},{"type":"Feature","geometry":{"type":"Point","coordinates":[-121.82531,44.28319]},"properties":{"name":"Little Belknap","country":"United States of America","website":null,"opening_hours":null,"capacity":null,"phone":null,"osmType":"node","osmId":357311761,"elevation":"1922"}},{"type":"Feature","geometry":{"type":"Point","coordinates":[-121.90475,43.44374]},"properties":{"name":"Little Odell Butte","country":"United States of America","website":null,"opening_hours":null,"capacity":null,"phone":null,"osmType":"node","osmId":357311849,"elevation":"1692"}},{"type":"Feature","geometry":{"type":"Point","coordinates":[-121.66699,43.84239]},"properties":{"name":"Lolah Butte","country":"United States of America","website":null,"opening_hours":null,"capacity":null,"phone":null,"osmType":"node","osmId":357311909,"elevation":"1615.44"}},{"type":"Feature","geometry":{"type":"Point","coordinates":[-121.60746,43.85289]},"properties":{"name":"Lolo Butte","country":"United States of America","website":null,"opening_hours":null,"capacity":null,"phone":null,"osmType":"node","osmId":357311912,"elevation":"1472.184"}},{"type":"Feature","geometry":{"type":"Point","coordinates":[-121.69687,43.80129]},"properties":{"name":"Lookout Mountain","country":"United States of America","website":null,"opening_hours":null,"capacity":null,"phone":null,"osmType":"node","osmId":357311971,"elevation":"1896.77"}},{"type":"Feature","geometry":{"type":"Point","coordinates":[-121.1881,43.77722]},"properties":{"name":"Lowullo Butte","country":"United States of America","website":null,"opening_hours":null,"capacity":null,"phone":null,"osmType":"node","osmId":357312074,"elevation":"2062"}},{"type":"Feature","geometry":{"type":"Point","coordinates":[-121.6747,43.83809]},"properties":{"name":"Lumrum Butte","country":"United States of America","website":null,"opening_hours":null,"capacity":null,"phone":null,"osmType":"node","osmId":357312099,"elevation":"1609.344"}},{"type":"Feature","geometry":{"type":"Point","coordinates":[-121.96503,43.62679]},"properties":{"name":"Maiden Peak","country":"United States of America","website":null,"opening_hours":null,"capacity":null,"phone":null,"osmType":"node","osmId":357312191,"elevation":"2379"}},{"type":"Feature","geometry":{"type":"Point","coordinates":[-122.31596,42.44455]},"properties":{"name":"Mount McLoughlin","country":"United States of America","website":null,"opening_hours":null,"capacity":null,"phone":null,"osmType":"node","osmId":357312332,"elevation":"2895"}},{"type":"Feature","geometry":{"type":"Point","coordinates":[-121.60335,44.17749]},"properties":{"name":"Melvin Butte","country":"United States of America","website":null,"opening_hours":null,"capacity":null,"phone":null,"osmType":"node","osmId":357312363,"elevation":"1523.39"}},{"type":"Feature","geometry":{"type":"Point","coordinates":[-121.78414,44.14839]},"properties":{"name":"Middle Sister","country":"United States of America","website":null,"opening_hours":null,"capacity":null,"phone":null,"osmType":"node","osmId":357312388,"elevation":"3064","type":"stratovolcano"}},{"type":"Feature","geometry":{"type":"Point","coordinates":[-121.28364,43.83567]},"properties":{"name":"Mokst Butte","country":"United States of America","website":null,"opening_hours":null,"capacity":null,"phone":null,"osmType":"node","osmId":357312540,"elevation":"1869"}},{"type":"Feature","geometry":{"type":"Point","coordinates":[-121.24357,43.74816]},"properties":{"name":"North Paulina Peak","country":"United States of America","website":null,"opening_hours":null,"capacity":null,"phone":null,"osmType":"node","osmId":357312914,"elevation":"2341"}},{"type":"Feature","geometry":{"type":"Point","coordinates":[-121.77227,44.1666]},"properties":{"name":"North Sister","country":"United States of America","website":null,"opening_hours":null,"capacity":null,"phone":null,"osmType":"node","osmId":357312944,"elevation":"3075","type":"stratovolcano"}},{"type":"Feature","geometry":{"type":"Point","coordinates":[-121.76368,44.82067]},"properties":{"name":"Olallie Butte","country":"United States of America","website":null,"opening_hours":null,"capacity":null,"phone":null,"osmType":"node","osmId":357313025,"elevation":"2195"}},{"type":"Feature","geometry":{"type":"Point","coordinates":[-121.75086,43.76762]},"properties":{"name":"Palanush Butte","country":"United States of America","website":null,"opening_hours":null,"capacity":null,"phone":null,"osmType":"node","osmId":357313158,"elevation":"1509"}},{"type":"Feature","geometry":{"type":"Point","coordinates":[-121.25493,43.6892]},"properties":{"name":"Paulina Peak","country":"United States of America","website":null,"opening_hours":null,"capacity":null,"phone":null,"osmType":"node","osmId":357313308,"elevation":"2429"}},{"type":"Feature","geometry":{"type":"Point","coordinates":[-122.14585,42.51319]},"properties":{"name":"Pelican Butte","country":"United States of America","website":null,"opening_hours":null,"capacity":null,"phone":null,"osmType":"node","osmId":357313367,"elevation":"2440"}},{"type":"Feature","geometry":{"type":"Point","coordinates":[-121.28326,44.06058]},"properties":{"name":"Pilot Butte","country":"United States of America","website":null,"opening_hours":null,"capacity":null,"phone":null,"osmType":"node","osmId":357313470,"elevation":"1259","type":"scoria"}},{"type":"Feature","geometry":{"type":"Point","coordinates":[-121.23123,43.78673]},"properties":{"name":"Pilpil Butte","country":"United States of America","website":null,"opening_hours":null,"capacity":null,"phone":null,"osmType":"node","osmId":357313490,"elevation":"2078"}},{"type":"Feature","geometry":{"type":"Point","coordinates":[-121.52198,43.92428]},"properties":{"name":"Pitsua Butte","country":"United States of America","website":null,"opening_hours":null,"capacity":null,"phone":null,"osmType":"node","osmId":357313590,"elevation":"1685"}},{"type":"Feature","geometry":{"type":"Point","coordinates":[-122.16344,42.99792]},"properties":{"name":"Red Cone","country":"United States of America","website":"https://www.craterlakeinstitute.com/natural-history/geology-red-cone.htm","opening_hours":null,"capacity":null,"phone":null,"osmType":"node","osmId":357314072,"elevation":"2244.242"}},{"type":"Feature","geometry":{"type":"Point","coordinates":[-121.7817,43.95289]},"properties":{"name":"Red Crater","country":"United States of America","website":null,"opening_hours":null,"capacity":null,"phone":null,"osmType":"node","osmId":357314077,"elevation":"1584"}},{"type":"Feature","geometry":{"type":"Point","coordinates":[-121.14503,43.7014]},"properties":{"name":"Red Hill","country":"United States of America","website":null,"opening_hours":null,"capacity":null,"phone":null,"osmType":"node","osmId":357314083,"elevation":"2042.16"}},{"type":"Feature","geometry":{"type":"Point","coordinates":[-121.1881,43.6863]},"properties":{"name":"Sand Butte","country":"United States of America","website":null,"opening_hours":null,"capacity":null,"phone":null,"osmType":"node","osmId":357315110,"elevation":"2160"}},{"type":"Feature","geometry":{"type":"Point","coordinates":[-122.01621,42.923]},"properties":{"name":"Mount Scott","country":"United States of America","website":null,"opening_hours":null,"capacity":null,"phone":null,"osmType":"node","osmId":357315268,"elevation":"2636"}},{"type":"Feature","geometry":{"type":"Point","coordinates":[-121.68772,43.90347]},"properties":{"name":"Sheridan Mountain","country":"United States of America","website":null,"opening_hours":null,"capacity":null,"phone":null,"osmType":"node","osmId":357315439,"elevation":"2100.072"}},{"type":"Feature","geometry":{"type":"Point","coordinates":[-121.76392,43.75984]},"properties":{"name":"Shukash Butte","country":"United States of America","website":null,"opening_hours":null,"capacity":null,"phone":null,"osmType":"node","osmId":357315493,"elevation":"1593"}},{"type":"Feature","geometry":{"type":"Point","coordinates":[-121.67291,43.85483]},"properties":{"name":"Siah Butte","country":"United States of America","website":null,"opening_hours":null,"capacity":null,"phone":null,"osmType":"node","osmId":357315498,"elevation":"1674.266"}},{"type":"Feature","geometry":{"type":"Point","coordinates":[-121.8706,44.19234]},"properties":{"name":"Sims Butte","country":"United States of America","website":null,"opening_hours":null,"capacity":null,"phone":null,"osmType":"node","osmId":357315535,"elevation":"1675"}},{"type":"Feature","geometry":{"type":"Point","coordinates":[-121.71565,44.33954]},"properties":{"name":"Sixmile Butte","country":"United States of America","website":null,"opening_hours":null,"capacity":null,"phone":null,"osmType":"node","osmId":357315588,"elevation":"1390.802"}},{"type":"Feature","geometry":{"type":"Point","coordinates":[-121.76933,44.10352]},"properties":{"name":"South Sister","country":"United States of America","website":null,"opening_hours":null,"capacity":null,"phone":null,"osmType":"node","osmId":357315877,"elevation":"3158.5","type":"stratovolcano"}},{"type":"Feature","geometry":{"type":"Point","coordinates":[-121.35212,43.82885]},"properties":{"name":"Sugar Pine Butte","country":"United States of America","website":null,"opening_hours":null,"capacity":null,"phone":null,"osmType":"node","osmId":357316153,"elevation":"1645"}},{"type":"Feature","geometry":{"type":"Point","coordinates":[-121.21634,43.84878]},"properties":{"name":"Swamp Wells Butte","country":"United States of America","website":null,"opening_hours":null,"capacity":null,"phone":null,"osmType":"node","osmId":357316301,"elevation":"1786"}},{"type":"Feature","geometry":{"type":"Point","coordinates":[-121.76092,44.02907]},"properties":{"name":"Talapus Butte","country":"United States of America","website":null,"opening_hours":null,"capacity":null,"phone":null,"osmType":"node","osmId":357316420,"elevation":"1876.958"}},{"type":"Feature","geometry":{"type":"Point","coordinates":[-121.18611,43.69379]},"properties":{"name":"The Dome","country":"United States of America","website":null,"opening_hours":null,"capacity":null,"phone":null,"osmType":"node","osmId":357316599,"elevation":"2188.464"}},{"type":"Feature","geometry":{"type":"Point","coordinates":[-122.06656,43.15287]},"properties":{"name":"Mount Thielsen","country":"United States of America","website":null,"opening_hours":null,"capacity":null,"phone":null,"osmType":"node","osmId":357316681,"elevation":"2799.4"}},{"type":"Feature","geometry":{"type":"Point","coordinates":[-121.57619,44.15035]},"properties":{"name":"Three Creek Butte","country":"United States of America","website":null,"opening_hours":null,"capacity":null,"phone":null,"osmType":"node","osmId":357316764,"elevation":"1690.116"}},{"type":"Feature","geometry":{"type":"Point","coordinates":[-121.6427,44.00536]},"properties":{"name":"Tumalo Mountain","country":"United States of America","website":null,"opening_hours":null,"capacity":null,"phone":null,"osmType":"node","osmId":357317067,"elevation":"2370"}},{"type":"Feature","geometry":{"type":"Point","coordinates":[-121.55586,43.91373]},"properties":{"name":"Wanoga Butte","country":"United States of America","website":null,"opening_hours":null,"capacity":null,"phone":null,"osmType":"node","osmId":357317559,"elevation":"1735"}},{"type":"Feature","geometry":{"type":"Point","coordinates":[-121.83853,44.33216]},"properties":{"name":"Mount Washington","country":"United States of America","website":null,"opening_hours":null,"capacity":null,"phone":null,"osmType":"node","osmId":357317607,"elevation":"2375.611"}},{"type":"Feature","geometry":{"type":"Point","coordinates":[-121.15279,43.679]},"properties":{"name":"Weasel Butte","country":"United States of America","website":null,"opening_hours":null,"capacity":null,"phone":null,"osmType":"node","osmId":357317702,"elevation":"1999.488"}},{"type":"Feature","geometry":{"type":"Point","coordinates":[-121.76364,43.77123]},"properties":{"name":"Wuksi Butte","country":"United States of America","website":null,"opening_hours":null,"capacity":null,"phone":null,"osmType":"node","osmId":357318347,"elevation":"1568"}},{"type":"Feature","geometry":{"type":"Point","coordinates":[-121.78552,44.21525]},"properties":{"name":"Yapoah Crater","country":"United States of America","website":null,"opening_hours":null,"capacity":null,"phone":null,"osmType":"node","osmId":357318361,"elevation":"2053","type":"scoria"}},{"type":"Feature","geometry":{"type":"Point","coordinates":[-121.23966,43.60149]},"properties":{"name":"Youtlkut Butte","country":"United States of America","website":null,"opening_hours":null,"capacity":null,"phone":null,"osmType":"node","osmId":357318428,"elevation":"1796.796"}},{"type":"Feature","geometry":{"type":"Point","coordinates":[-121.22846,43.72441]},"properties":{"name":"Central Pumice Cone","country":"United States of America","website":null,"opening_hours":null,"capacity":null,"phone":null,"osmType":"node","osmId":357320771,"elevation":"2159.203","type":"scoria"}},{"type":"Feature","geometry":{"type":"Point","coordinates":[-120.07442,43.55736]},"properties":{"name":"Glass Butte","country":"United States of America","website":null,"opening_hours":null,"capacity":null,"phone":null,"osmType":"node","osmId":357326229,"elevation":"1946"}},{"type":"Feature","geometry":{"type":"Point","coordinates":[-120.72627,43.47153]},"properties":{"name":"Twin Buttes","country":"United States of America","website":null,"opening_hours":null,"capacity":null,"phone":null,"osmType":"node","osmId":357326406,"elevation":"1525.2"}},{"type":"Feature","geometry":{"type":"Point","coordinates":[-122.10353,42.93801]},"properties":{"name":"Mount Mazama","country":"United States of America","website":null,"opening_hours":null,"capacity":null,"phone":null,"osmType":"node","osmId":357332327}},{"type":"Feature","geometry":{"type":"Point","coordinates":[-121.41903,41.69075]},"properties":{"name":"Big Sand Butte","country":"United States of America","website":null,"opening_hours":null,"capacity":null,"phone":null,"osmType":"node","osmId":358761926,"elevation":"1420","type":"scoria"}},{"type":"Feature","geometry":{"type":"Point","coordinates":[-121.23733,40.45219]},"properties":{"name":"Black Cinder Rock","country":"United States of America","website":null,"opening_hours":null,"capacity":null,"phone":null,"osmType":"node","osmId":358762013,"elevation":"2358"}},{"type":"Feature","geometry":{"type":"Point","coordinates":[-121.46805,41.49127]},"properties":{"name":"Border Mountain","country":"United States of America","website":null,"opening_hours":null,"capacity":null,"phone":null,"osmType":"node","osmId":358762287,"elevation":"1905"}},{"type":"Feature","geometry":{"type":"Point","coordinates":[-121.44637,41.17794]},"properties":{"name":"Brushy Butte","country":"United States of America","website":null,"opening_hours":null,"capacity":null,"phone":null,"osmType":"node","osmId":358762556,"elevation":"1157"}},{"type":"Feature","geometry":{"type":"Point","coordinates":[-121.46971,41.47405]},"properties":{"name":"Buck Butte","country":"United States of America","website":null,"opening_hours":null,"capacity":null,"phone":null,"osmType":"node","osmId":358762587,"elevation":"1627"}},{"type":"Feature","geometry":{"type":"Point","coordinates":[-121.60144,41.68537]},"properties":{"name":"Cinder Butte","country":"United States of America","website":null,"opening_hours":null,"capacity":null,"phone":null,"osmType":"node","osmId":358763610,"elevation":"1813","type":"scoria"}},{"type":"Feature","geometry":{"type":"Point","coordinates":[-121.05107,40.48239]},"properties":{"name":"Clover Butte","country":"United States of America","website":null,"opening_hours":null,"capacity":null,"phone":null,"osmType":"node","osmId":358763763,"elevation":"1882"}},{"type":"Feature","geometry":{"type":"Point","coordinates":[-121.47194,41.65349]},"properties":{"name":"Cougar Butte","country":"United States of America","website":null,"opening_hours":null,"capacity":null,"phone":null,"osmType":"node","osmId":358764184,"elevation":"1762"}},{"type":"Feature","geometry":{"type":"Point","coordinates":[-121.38426,41.68147]},"properties":{"name":"East Sand Butte","country":"United States of America","website":null,"opening_hours":null,"capacity":null,"phone":null,"osmType":"node","osmId":358765111,"elevation":"1361","type":"scoria"}},{"type":"Feature","geometry":{"type":"Point","coordinates":[-121.61666,41.64266]},"properties":{"name":"Fourmile Hill","country":"United States of America","website":null,"opening_hours":null,"capacity":null,"phone":null,"osmType":"node","osmId":358766079,"elevation":"2115"}},{"type":"Feature","geometry":{"type":"Point","coordinates":[-121.56998,40.73877]},"properties":{"name":"Freaner Peak","country":"United States of America","website":null,"opening_hours":null,"capacity":null,"phone":null,"osmType":"node","osmId":358766177,"elevation":"2250"}},{"type":"Feature","geometry":{"type":"Point","coordinates":[-121.5597,40.69516]},"properties":{"name":"Hall Butte","country":"United States of America","website":null,"opening_hours":null,"capacity":null,"phone":null,"osmType":"node","osmId":358767069,"elevation":"2177"}},{"type":"Feature","geometry":{"type":"Point","coordinates":[-121.41498,40.50655]},"properties":{"name":"Hat Mountain","country":"United States of America","website":null,"opening_hours":null,"capacity":null,"phone":null,"osmType":"node","osmId":358767241,"elevation":"2345"}},{"type":"Feature","geometry":{"type":"Point","coordinates":[-121.50777,41.63738]},"properties":{"name":"Indian Butte","country":"United States of America","website":null,"opening_hours":null,"capacity":null,"phone":null,"osmType":"node","osmId":358768003,"elevation":"2037"}},{"type":"Feature","geometry":{"type":"Point","coordinates":[-121.94388,40.34182]},"properties":{"name":"Inskip Hill","country":"United States of America","website":null,"opening_hours":null,"capacity":null,"phone":null,"osmType":"node","osmId":358768057,"elevation":"931"}},{"type":"Feature","geometry":{"type":"Point","coordinates":[-121.95833,40.36293]},"properties":{"name":"Little Inskip Hill","country":"United States of America","website":null,"opening_hours":null,"capacity":null,"phone":null,"osmType":"node","osmId":358769488,"elevation":"720"}},{"type":"Feature","geometry":{"type":"Point","coordinates":[-121.4165,41.67018]},"properties":{"name":"Little Sand Butte","country":"United States of America","website":null,"opening_hours":null,"capacity":null,"phone":null,"osmType":"node","osmId":358769526,"elevation":"1364"}},{"type":"Feature","geometry":{"type":"Point","coordinates":[-121.55298,41.71598]},"properties":{"name":"Modoc Crater","country":"United States of America","website":null,"opening_hours":null,"capacity":null,"phone":null,"osmType":"node","osmId":358770946,"elevation":"1567","type":"scoria"}},{"type":"Feature","geometry":{"type":"Point","coordinates":[-121.64055,41.49877]},"properties":{"name":"Papoose Hill","country":"United States of America","website":null,"opening_hours":null,"capacity":null,"phone":null,"osmType":"node","osmId":358772373,"elevation":"1799"}},{"type":"Feature","geometry":{"type":"Point","coordinates":[-121.62666,41.47627]},"properties":{"name":"Powder Hill","country":"United States of America","website":null,"opening_hours":null,"capacity":null,"phone":null,"osmType":"node","osmId":358773023,"elevation":"1735"}},{"type":"Feature","geometry":{"type":"Point","coordinates":[-121.46277,41.42766]},"properties":{"name":"Round Mountain","country":"United States of America","website":null,"opening_hours":null,"capacity":null,"phone":null,"osmType":"node","osmId":358773901,"elevation":"1594"}},{"type":"Feature","geometry":{"type":"Point","coordinates":[-122.66388,38.91573]},"properties":{"name":"Roundtop Mountain","country":"United States of America","website":null,"opening_hours":null,"capacity":null,"phone":null,"osmType":"node","osmId":358773923,"elevation":"692","type":"scoria"}},{"type":"Feature","geometry":{"type":"Point","coordinates":[-121.53777,41.74877]},"properties":{"name":"Semi Crater","country":"United States of America","website":null,"opening_hours":null,"capacity":null,"phone":null,"osmType":"node","osmId":358774924,"elevation":"1434","type":"scoria"}},{"type":"Feature","geometry":{"type":"Point","coordinates":[-121.99888,40.45682]},"properties":{"name":"Black Butte","country":"United States of America","website":null,"opening_hours":null,"capacity":null,"phone":null,"osmType":"node","osmId":358775515,"elevation":"790"}},{"type":"Feature","geometry":{"type":"Point","coordinates":[-121.64611,41.47349]},"properties":{"name":"Snag Hill","country":"United States of America","website":null,"opening_hours":null,"capacity":null,"phone":null,"osmType":"node","osmId":358776155,"elevation":"1701"}},{"type":"Feature","geometry":{"type":"Point","coordinates":[-121.58222,41.49127]},"properties":{"name":"Stud Hill","country":"United States of America","website":null,"opening_hours":null,"capacity":null,"phone":null,"osmType":"node","osmId":358776679,"elevation":"1758"}},{"type":"Feature","geometry":{"type":"Point","coordinates":[-121.78889,41.67043]},"properties":{"name":"Wild Horse Mountain","country":"United States of America","website":null,"opening_hours":null,"capacity":null,"phone":null,"osmType":"node","osmId":358778892,"elevation":"1835"}},{"type":"Feature","geometry":{"type":"Point","coordinates":[-121.52667,41.77027]},"properties":{"name":"Cranston Knob","country":"United States of America","website":null,"opening_hours":null,"capacity":null,"phone":null,"osmType":"node","osmId":358795117,"elevation":"1313","type":"scoria"}},{"type":"Feature","geometry":{"type":"Point","coordinates":[-122.76913,38.98955]},"properties":{"name":"Buckingham Peak","country":"United States of America","website":null,"opening_hours":null,"capacity":null,"phone":null,"osmType":"node","osmId":358796025,"elevation":"1200"}},{"type":"Feature","geometry":{"type":"Point","coordinates":[-121.49498,40.50516]},"properties":{"name":"Crescent Crater","country":"United States of America","website":null,"opening_hours":null,"capacity":null,"phone":null,"osmType":"node","osmId":358796091,"elevation":"2452","type":"caldera"}},{"type":"Feature","geometry":{"type":"Point","coordinates":[-121.2283,40.54322]},"properties":{"name":"Black Butte","country":"United States of America","website":null,"opening_hours":null,"capacity":null,"phone":null,"osmType":"node","osmId":358796899,"elevation":"2435"}},{"type":"Feature","geometry":{"type":"Point","coordinates":[-121.62776,40.80655]},"properties":{"name":"Burney Mountain","country":"United States of America","website":null,"opening_hours":null,"capacity":null,"phone":null,"osmType":"node","osmId":358797103,"elevation":"2395"}},{"type":"Feature","geometry":{"type":"Point","coordinates":[-121.52642,40.53142]},"properties":{"name":"Chaos Crater","country":"United States of America","website":null,"opening_hours":null,"capacity":null,"phone":null,"osmType":"node","osmId":358797237,"elevation":"2134","type":"caldera"}},{"type":"Feature","geometry":{"type":"Point","coordinates":[-121.49054,40.86822]},"properties":{"name":"Cinder Butte","country":"United States of America","website":null,"opening_hours":null,"capacity":null,"phone":null,"osmType":"node","osmId":358797295,"elevation":"1336"}},{"type":"Feature","geometry":{"type":"Point","coordinates":[-121.31966,40.54853]},"properties":{"name":"Cinder Cone","country":"United States of America","website":null,"opening_hours":null,"capacity":null,"phone":null,"osmType":"node","osmId":358797298,"elevation":"2105","type":"scoria"}},{"type":"Feature","geometry":{"type":"Point","coordinates":[-121.36387,40.93239]},"properties":{"name":"Cinder Cone","country":"United States of America","website":null,"opening_hours":null,"capacity":null,"phone":null,"osmType":"node","osmId":358797300,"elevation":"1111"}},{"type":"Feature","geometry":{"type":"Point","coordinates":[-122.28862,41.47737]},"properties":{"name":"Cinder Cone","country":"United States of America","website":null,"opening_hours":null,"capacity":null,"phone":null,"osmType":"node","osmId":358797303,"elevation":"1656"}},{"type":"Feature","geometry":{"type":"Point","coordinates":[-121.64777,41.52849]},"properties":{"name":"Cinder Cone","country":"United States of America","website":null,"opening_hours":null,"capacity":null,"phone":null,"osmType":"node","osmId":358797305,"elevation":"1890"}},{"type":"Feature","geometry":{"type":"Point","coordinates":[-121.3547,40.48877]},"properties":{"name":"Crater Butte","country":"United States of America","website":null,"opening_hours":null,"capacity":null,"phone":null,"osmType":"node","osmId":358797424,"elevation":"2211"}},{"type":"Feature","geometry":{"type":"Point","coordinates":[-121.74139,41.50571]},"properties":{"name":"Doe Peak","country":"United States of America","website":null,"opening_hours":null,"capacity":null,"phone":null,"osmType":"node","osmId":358797577,"elevation":"1854"}},{"type":"Feature","geometry":{"type":"Point","coordinates":[-121.35338,40.51959]},"properties":{"name":"Fairfield Peak","country":"United States of America","website":null,"opening_hours":null,"capacity":null,"phone":null,"osmType":"node","osmId":358797758,"elevation":"2212"}},{"type":"Feature","geometry":{"type":"Point","coordinates":[-121.86889,41.6246]},"properties":{"name":"Garner Butte","country":"United States of America","website":null,"opening_hours":null,"capacity":null,"phone":null,"osmType":"node","osmId":358797897,"elevation":"1511"}},{"type":"Feature","geometry":{"type":"Point","coordinates":[-121.80945,41.59182]},"properties":{"name":"Garner Mountain","country":"United States of America","website":null,"opening_hours":null,"capacity":null,"phone":null,"osmType":"node","osmId":358797898,"elevation":"2195"}},{"type":"Feature","geometry":{"type":"Point","coordinates":[-121.50444,41.60155]},"properties":{"name":"Glass Mountain","country":"United States of America","website":null,"opening_hours":null,"capacity":null,"phone":null,"osmType":"node","osmId":358797933,"elevation":"2316","type":"shield"}},{"type":"Feature","geometry":{"type":"Point","coordinates":[-121.53128,41.50916]},"properties":{"name":"High Hole Crater","country":"United States of America","website":null,"opening_hours":null,"capacity":null,"phone":null,"osmType":"node","osmId":358798127,"elevation":"1838"}},{"type":"Feature","geometry":{"type":"Point","coordinates":[-121.55444,41.61071]},"properties":{"name":"Mount Hoffman","country":"United States of America","website":null,"opening_hours":null,"capacity":null,"phone":null,"osmType":"node","osmId":358798159,"elevation":"2397"}},{"type":"Feature","geometry":{"type":"Point","coordinates":[-121.68611,41.56738]},"properties":{"name":"Little Glass Mountain","country":"United States of America","website":null,"opening_hours":null,"capacity":null,"phone":null,"osmType":"node","osmId":358798558,"elevation":"2073"}},{"type":"Feature","geometry":{"type":"Point","coordinates":[-121.50721,41.57905]},"properties":{"name":"Lyons Peak","country":"United States of America","website":null,"opening_hours":null,"capacity":null,"phone":null,"osmType":"node","osmId":358798687,"elevation":"2398"}},{"type":"Feature","geometry":{"type":"Point","coordinates":[-121.61194,41.56377]},"properties":{"name":"Medicine Mountain","country":"United States of America","website":null,"opening_hours":null,"capacity":null,"phone":null,"osmType":"node","osmId":358798780,"elevation":"2295","type":"shield"}},{"type":"Feature","geometry":{"type":"Point","coordinates":[-121.60305,41.42571]},"properties":{"name":"Porcupine Butte","country":"United States of America","website":null,"opening_hours":null,"capacity":null,"phone":null,"osmType":"node","osmId":358799203,"elevation":"1524"}},{"type":"Feature","geometry":{"type":"Point","coordinates":[-121.43859,40.63572]},"properties":{"name":"Potato Butte","country":"United States of America","website":null,"opening_hours":null,"capacity":null,"phone":null,"osmType":"node","osmId":358799214,"elevation":"1539"}},{"type":"Feature","geometry":{"type":"Point","coordinates":[-121.34581,40.57294]},"properties":{"name":"Prospect Peak","country":"United States of America","website":null,"opening_hours":null,"capacity":null,"phone":null,"osmType":"node","osmId":358799247,"elevation":"2538"}},{"type":"Feature","geometry":{"type":"Point","coordinates":[-121.55249,41.41822]},"properties":{"name":"Red Hill","country":"United States of America","website":null,"opening_hours":null,"capacity":null,"phone":null,"osmType":"node","osmId":358799342,"elevation":"1402"}},{"type":"Feature","geometry":{"type":"Point","coordinates":[-121.645,41.54294]},"properties":{"name":"Red Hill","country":"United States of America","website":null,"opening_hours":null,"capacity":null,"phone":null,"osmType":"node","osmId":358799345,"elevation":"1956"}},{"type":"Feature","geometry":{"type":"Point","coordinates":[-121.59415,40.57127]},"properties":{"name":"Red Lake Mountain","country":"United States of America","website":null,"opening_hours":null,"capacity":null,"phone":null,"osmType":"node","osmId":358799351,"elevation":"2023"}},{"type":"Feature","geometry":{"type":"Point","coordinates":[-121.07663,40.53211]},"properties":{"name":"Round Valley Butte","country":"United States of America","website":null,"opening_hours":null,"capacity":null,"phone":null,"osmType":"node","osmId":358799482,"elevation":"2008"}},{"type":"Feature","geometry":{"type":"Point","coordinates":[-122.19486,41.4092]},"properties":{"name":"Mount Shasta","country":"United States of America","website":null,"opening_hours":null,"capacity":null,"phone":null,"osmType":"node","osmId":358799623,"elevation":"4321.8"}},{"type":"Feature","geometry":{"type":"Point","coordinates":[-122.22331,41.40919]},"properties":{"name":"Shastina","country":"United States of America","website":null,"opening_hours":null,"capacity":null,"phone":null,"osmType":"node","osmId":358799626,"elevation":"3758.2"}},{"type":"Feature","geometry":{"type":"Point","coordinates":[-121.61916,41.51016]},"properties":{"name":"Six Shooter Butte","country":"United States of America","website":null,"opening_hours":null,"capacity":null,"phone":null,"osmType":"node","osmId":358799672,"elevation":"1917"}},{"type":"Feature","geometry":{"type":"Point","coordinates":[-122.34816,41.36652]},"properties":{"name":"Black Butte","country":"United States of America","website":null,"opening_hours":null,"capacity":null,"phone":null,"osmType":"node","osmId":358799766,"elevation":"1938"}},{"type":"Feature","geometry":{"type":"Point","coordinates":[-121.50305,41.43877]},"properties":{"name":"Snell Butte","country":"United States of America","website":null,"opening_hours":null,"capacity":null,"phone":null,"osmType":"node","osmId":358799978,"elevation":"1477"}},{"type":"Feature","geometry":{"type":"Point","coordinates":[-121.76386,41.55751]},"properties":{"name":"Tamarack Peak","country":"United States of America","website":null,"opening_hours":null,"capacity":null,"phone":null,"osmType":"node","osmId":358800049,"elevation":"2092"}},{"type":"Feature","geometry":{"type":"Point","coordinates":[-121.79471,40.71821]},"properties":{"name":"Stacher Butte","country":"United States of America","website":null,"opening_hours":null,"capacity":null,"phone":null,"osmType":"node","osmId":358800051,"elevation":"1759"}},{"type":"Feature","geometry":{"type":"Point","coordinates":[-121.45998,40.69599]},"properties":{"name":"Sugarloaf Peak","country":"United States of America","website":null,"opening_hours":null,"capacity":null,"phone":null,"osmType":"node","osmId":358800149,"elevation":"1993"}},{"type":"Feature","geometry":{"type":"Point","coordinates":[-121.73972,41.72404]},"properties":{"name":"Three Sisters","country":"United States of America","website":null,"opening_hours":null,"capacity":null,"phone":null,"osmType":"node","osmId":358800374,"elevation":"1605"}},{"type":"Feature","geometry":{"type":"Point","coordinates":[-121.24691,40.496]},"properties":{"name":"Red Cinder","country":"United States of America","website":null,"opening_hours":null,"capacity":null,"phone":null,"osmType":"node","osmId":358801988,"elevation":"2549"}},{"type":"Feature","geometry":{"type":"Point","coordinates":[-121.72555,41.51793]},"properties":{"name":"Fawn Hill","country":"United States of America","website":null,"opening_hours":null,"capacity":null,"phone":null,"osmType":"node","osmId":358802815,"elevation":"1804"}},{"type":"Feature","geometry":{"type":"Point","coordinates":[-121.74333,41.51821]},"properties":{"name":"Buck Hill","country":"United States of America","website":null,"opening_hours":null,"capacity":null,"phone":null,"osmType":"node","osmId":358802818,"elevation":"1790"}},{"type":"Feature","geometry":{"type":"Point","coordinates":[-121.70972,41.52043]},"properties":{"name":"Hopper Hill","country":"United States of America","website":null,"opening_hours":null,"capacity":null,"phone":null,"osmType":"node","osmId":358802819,"elevation":"1784"}},{"type":"Feature","geometry":{"type":"Point","coordinates":[-122.63498,39.04878]},"properties":{"name":"Round Mountain","country":"United States of America","website":null,"opening_hours":null,"capacity":null,"phone":null,"osmType":"node","osmId":358804109,"elevation":"687","type":"scoria"}},{"type":"Feature","geometry":{"type":"Point","coordinates":[-121.73972,41.64404]},"properties":{"name":"Hill 22","country":"United States of America","website":null,"opening_hours":null,"capacity":null,"phone":null,"osmType":"node","osmId":358805851,"elevation":"1674"}},{"type":"Feature","geometry":{"type":"Point","coordinates":[-121.53776,40.63294]},"properties":{"name":"Bear Wallow Butte","country":"United States of America","website":null,"opening_hours":null,"capacity":null,"phone":null,"osmType":"node","osmId":358806074,"elevation":"1875"}},{"type":"Feature","geometry":{"type":"Point","coordinates":[-121.15441,40.59211]},"properties":{"name":"Bogard Buttes","country":"United States of America","website":null,"opening_hours":null,"capacity":null,"phone":null,"osmType":"node","osmId":358806141,"elevation":"2282"}},{"type":"Feature","geometry":{"type":"Point","coordinates":[-121.5222,40.52405]},"properties":{"name":"Chaos Crags","country":"United States of America","website":null,"opening_hours":null,"capacity":null,"phone":null,"osmType":"node","osmId":358806231,"elevation":"2567"}},{"type":"Feature","geometry":{"type":"Point","coordinates":[-121.64582,40.34821]},"properties":{"name":"Cold Creek Butte","country":"United States of America","website":null,"opening_hours":null,"capacity":null,"phone":null,"osmType":"node","osmId":358806257,"elevation":"1589"}},{"type":"Feature","geometry":{"type":"Point","coordinates":[-121.04135,40.62267]},"properties":{"name":"Crater Mountain","country":"United States of America","website":null,"opening_hours":null,"capacity":null,"phone":null,"osmType":"node","osmId":358806299,"elevation":"2197"}},{"type":"Feature","geometry":{"type":"Point","coordinates":[-121.56299,40.72328]},"properties":{"name":"Eiler Butte","country":"United States of America","website":null,"opening_hours":null,"capacity":null,"phone":null,"osmType":"node","osmId":358806402,"elevation":"2048"}},{"type":"Feature","geometry":{"type":"Point","coordinates":[-121.43664,40.64711]},"properties":{"name":"Little Potato Butte","country":"United States of America","website":null,"opening_hours":null,"capacity":null,"phone":null,"osmType":"node","osmId":358806744,"elevation":"1466"}},{"type":"Feature","geometry":{"type":"Point","coordinates":[-121.62555,41.65127]},"properties":{"name":"Lookout Butte","country":"United States of America","website":null,"opening_hours":null,"capacity":null,"phone":null,"osmType":"node","osmId":358806774,"elevation":"1982"}},{"type":"Feature","geometry":{"type":"Point","coordinates":[-122.18085,41.36133]},"properties":{"name":"Red Butte","country":"United States of America","website":null,"opening_hours":null,"capacity":null,"phone":null,"osmType":"node","osmId":358807158,"elevation":"2553.3"}},{"type":"Feature","geometry":{"type":"Point","coordinates":[-121.5236,41.5796]},"properties":{"name":"Red Shale Butte","country":"United States of America","website":null,"opening_hours":null,"capacity":null,"phone":null,"osmType":"node","osmId":358807176,"elevation":"2381"}},{"type":"Feature","geometry":{"type":"Point","coordinates":[-122.17306,41.28182]},"properties":{"name":"Signal Butte","country":"United States of America","website":null,"opening_hours":null,"capacity":null,"phone":null,"osmType":"node","osmId":358807277,"elevation":"1431"}},{"type":"Feature","geometry":{"type":"Point","coordinates":[-121.54998,40.67183]},"properties":{"name":"Tumble Buttes","country":"United States of America","website":null,"opening_hours":null,"capacity":null,"phone":null,"osmType":"node","osmId":358807614,"elevation":"2024"}},{"type":"Feature","geometry":{"type":"Point","coordinates":[-121.55222,41.51266]},"properties":{"name":"Yellowjacket Butte","country":"United States of America","website":null,"opening_hours":null,"capacity":null,"phone":null,"osmType":"node","osmId":358807740,"elevation":"1845"}},{"type":"Feature","geometry":{"type":"Point","coordinates":[-121.05302,40.49378]},"properties":{"name":"Bennett Knoll","country":"United States of America","website":null,"opening_hours":null,"capacity":null,"phone":null,"osmType":"node","osmId":358815270,"elevation":"1848"}},{"type":"Feature","geometry":{"type":"Point","coordinates":[-121.21719,40.65572]},"properties":{"name":"Poison Butte","country":"United States of America","website":null,"opening_hours":null,"capacity":null,"phone":null,"osmType":"node","osmId":358815367,"elevation":"1844"}},{"type":"Feature","geometry":{"type":"Point","coordinates":[-122.14961,43.5207]},"properties":{"name":"Diamond Peak","country":"United States of America","website":null,"opening_hours":null,"capacity":null,"phone":null,"osmType":"node","osmId":1691537555,"elevation":"2665.2","type":"shield"}},{"type":"Feature","geometry":{"type":"Point","coordinates":[-121.75752,46.8522]},"properties":{"name":"Mount Rainier","country":"United States of America","website":null,"opening_hours":null,"capacity":null,"phone":null,"osmType":"node","osmId":1744903493,"elevation":"4392","type":"stratovolcano"}},{"type":"Feature","geometry":{"type":"Point","coordinates":[-121.59838,43.99206]},"properties":{"name":"Vista Butte","country":"United States of America","website":null,"opening_hours":null,"capacity":null,"phone":null,"osmType":"node","osmId":3040323668,"elevation":"2017"}},{"type":"Feature","geometry":{"type":"Point","coordinates":[-121.74851,44.26598]},"properties":{"name":"Black Crater","country":"United States of America","website":null,"opening_hours":null,"capacity":null,"phone":null,"osmType":"node","osmId":3054333484,"elevation":"2210"}},{"type":"Feature","geometry":{"type":"Point","coordinates":[-121.26924,43.94906]},"properties":{"name":"Bessie Butte","country":"United States of America","website":null,"opening_hours":null,"capacity":null,"phone":null,"osmType":"node","osmId":3199632518,"elevation":"1453"}},{"type":"Feature","geometry":{"type":"Point","coordinates":[-121.92787,44.39017]},"properties":{"name":null,"country":"United States of America","website":null,"opening_hours":null,"capacity":null,"phone":null,"osmType":"node","osmId":3581381793,"elevation":"1658"}},{"type":"Feature","geometry":{"type":"Point","coordinates":[-121.18901,43.66395]},"properties":{"name":null,"country":"United States of America","website":null,"opening_hours":null,"capacity":null,"phone":null,"osmType":"node","osmId":3621004609}},{"type":"Feature","geometry":{"type":"Point","coordinates":[-121.36746,43.82263]},"properties":{"name":"Ada Butte","country":"United States of America","website":null,"opening_hours":null,"capacity":null,"phone":null,"osmType":"node","osmId":3621205634,"elevation":"1552.651"}},{"type":"Feature","geometry":{"type":"Point","coordinates":[-120.72901,43.46494]},"properties":{"name":"Twin Buttes","country":"United States of America","website":null,"opening_hours":null,"capacity":null,"phone":null,"osmType":"node","osmId":3621247050,"elevation":"1518.5"}},{"type":"Feature","geometry":{"type":"Point","coordinates":[-121.28953,43.87656]},"properties":{"name":"Klawhop Butte","country":"United States of America","website":null,"opening_hours":null,"capacity":null,"phone":null,"osmType":"node","osmId":4084569472,"elevation":"1680"}},{"type":"Feature","geometry":{"type":"Point","coordinates":[-121.24774,43.86498]},"properties":{"name":"Balbali Butte","country":"United States of America","website":null,"opening_hours":null,"capacity":null,"phone":null,"osmType":"node","osmId":4084569474,"elevation":"1708"}},{"type":"Feature","geometry":{"type":"Point","coordinates":[-121.25872,43.87053]},"properties":{"name":null,"country":"United States of America","website":null,"opening_hours":null,"capacity":null,"phone":null,"osmType":"node","osmId":4084569475,"elevation":"1700"}},{"type":"Feature","geometry":{"type":"Point","coordinates":[-121.26773,43.8791]},"properties":{"name":null,"country":"United States of America","website":null,"opening_hours":null,"capacity":null,"phone":null,"osmType":"node","osmId":4084569476,"elevation":"1665"}},{"type":"Feature","geometry":{"type":"Point","coordinates":[-121.24923,43.88295]},"properties":{"name":null,"country":"United States of America","website":null,"opening_hours":null,"capacity":null,"phone":null,"osmType":"node","osmId":4084569477,"elevation":"1608"}},{"type":"Feature","geometry":{"type":"Point","coordinates":[-121.26532,43.8859]},"properties":{"name":null,"country":"United States of America","website":null,"opening_hours":null,"capacity":null,"phone":null,"osmType":"node","osmId":4084569479,"elevation":"1593"}},{"type":"Feature","geometry":{"type":"Point","coordinates":[-121.31404,43.80304]},"properties":{"name":"Pine Cone Butte","country":"United States of America","website":null,"opening_hours":null,"capacity":null,"phone":null,"osmType":"node","osmId":4084593604,"elevation":"1730"}},{"type":"Feature","geometry":{"type":"Point","coordinates":[-121.29229,43.81158]},"properties":{"name":null,"country":"United States of America","website":null,"opening_hours":null,"capacity":null,"phone":null,"osmType":"node","osmId":4084593605,"elevation":"1808"}},{"type":"Feature","geometry":{"type":"Point","coordinates":[-121.22083,43.81436]},"properties":{"name":null,"country":"United States of America","website":null,"opening_hours":null,"capacity":null,"phone":null,"osmType":"node","osmId":4084593606,"elevation":"1868"}},{"type":"Feature","geometry":{"type":"Point","coordinates":[-121.32848,43.81459]},"properties":{"name":null,"country":"United States of America","website":null,"opening_hours":null,"capacity":null,"phone":null,"osmType":"node","osmId":4084593607,"elevation":"1586"}},{"type":"Feature","geometry":{"type":"Point","coordinates":[-121.34055,43.81809]},"properties":{"name":null,"country":"United States of America","website":null,"opening_hours":null,"capacity":null,"phone":null,"osmType":"node","osmId":4084593608,"elevation":"1604"}},{"type":"Feature","geometry":{"type":"Point","coordinates":[-121.35119,43.81954]},"properties":{"name":null,"country":"United States of America","website":null,"opening_hours":null,"capacity":null,"phone":null,"osmType":"node","osmId":4084593610,"elevation":"1598"}},{"type":"Feature","geometry":{"type":"Point","coordinates":[-121.28272,43.82165]},"properties":{"name":"Puku Butte","country":"United States of America","website":null,"opening_hours":null,"capacity":null,"phone":null,"osmType":"node","osmId":4084593611,"elevation":"1824"}},{"type":"Feature","geometry":{"type":"Point","coordinates":[-121.32819,43.82281]},"properties":{"name":"Nota Butte","country":"United States of America","website":null,"opening_hours":null,"capacity":null,"phone":null,"osmType":"node","osmId":4084593612,"elevation":"1643"}},{"type":"Feature","geometry":{"type":"Point","coordinates":[-121.29001,43.8293]},"properties":{"name":"Grade Butte","country":"United States of America","website":null,"opening_hours":null,"capacity":null,"phone":null,"osmType":"node","osmId":4084593614,"elevation":"1821"}},{"type":"Feature","geometry":{"type":"Point","coordinates":[-121.22145,43.83116]},"properties":{"name":"Gekgekli Butte","country":"United States of America","website":null,"opening_hours":null,"capacity":null,"phone":null,"osmType":"node","osmId":4084593615,"elevation":"1826"}},{"type":"Feature","geometry":{"type":"Point","coordinates":[-121.23818,43.83296]},"properties":{"name":"Bosbosli Butte","country":"United States of America","website":null,"opening_hours":null,"capacity":null,"phone":null,"osmType":"node","osmId":4084593616,"elevation":"1877"}},{"type":"Feature","geometry":{"type":"Point","coordinates":[-121.23164,43.83483]},"properties":{"name":null,"country":"United States of America","website":null,"opening_hours":null,"capacity":null,"phone":null,"osmType":"node","osmId":4084593617,"elevation":"1825"}},{"type":"Feature","geometry":{"type":"Point","coordinates":[-121.20502,43.83717]},"properties":{"name":"Kide Butte","country":"United States of America","website":null,"opening_hours":null,"capacity":null,"phone":null,"osmType":"node","osmId":4084593618,"elevation":"1768"}},{"type":"Feature","geometry":{"type":"Point","coordinates":[-121.22692,43.84141]},"properties":{"name":null,"country":"United States of America","website":null,"opening_hours":null,"capacity":null,"phone":null,"osmType":"node","osmId":4084593619,"elevation":"1785"}},{"type":"Feature","geometry":{"type":"Point","coordinates":[-121.18592,43.8415]},"properties":{"name":null,"country":"United States of America","website":null,"opening_hours":null,"capacity":null,"phone":null,"osmType":"node","osmId":4084593620,"elevation":"1739"}},{"type":"Feature","geometry":{"type":"Point","coordinates":[-121.20189,43.85779]},"properties":{"name":null,"country":"United States of America","website":null,"opening_hours":null,"capacity":null,"phone":null,"osmType":"node","osmId":4084593623,"elevation":"1725"}},{"type":"Feature","geometry":{"type":"Point","coordinates":[-121.218,43.85969]},"properties":{"name":null,"country":"United States of America","website":null,"opening_hours":null,"capacity":null,"phone":null,"osmType":"node","osmId":4084593624,"elevation":"1764.792"}},{"type":"Feature","geometry":{"type":"Point","coordinates":[-121.27776,43.77985]},"properties":{"name":"North Kawak Butte","country":"United States of America","website":null,"opening_hours":null,"capacity":null,"phone":null,"osmType":"node","osmId":4084596508,"elevation":"2023"}},{"type":"Feature","geometry":{"type":"Point","coordinates":[-121.35593,43.91761]},"properties":{"name":"Lava Butte","country":"United States of America","website":null,"opening_hours":null,"capacity":null,"phone":null,"osmType":"node","osmId":4328255423,"elevation":"1531","type":"scoria"}},{"type":"Feature","geometry":{"type":"Point","coordinates":[-121.88494,44.25392]},"properties":{"name":"Twin Craters","country":"United States of America","website":null,"opening_hours":null,"capacity":null,"phone":null,"osmType":"node","osmId":4341776144}},{"type":"Feature","geometry":{"type":"Point","coordinates":[-121.62596,41.68993]},"properties":{"name":"Stieber Lava Butte","country":"United States of America","website":null,"opening_hours":null,"capacity":null,"phone":null,"osmType":"node","osmId":4915939708,"type":"shield"}},{"type":"Feature","geometry":{"type":"Point","coordinates":[-121.61552,41.69708]},"properties":{"name":null,"country":"United States of America","website":null,"opening_hours":null,"capacity":null,"phone":null,"osmType":"node","osmId":4915939709,"type":"scoria"}},{"type":"Feature","geometry":{"type":"Point","coordinates":[-121.60994,43.8738]},"properties":{"name":null,"country":"United States of America","website":null,"opening_hours":null,"capacity":null,"phone":null,"osmType":"node","osmId":4984062867,"elevation":"1460"}},{"type":"Feature","geometry":{"type":"Point","coordinates":[-121.61179,43.86012]},